[{"Entreprise":"ORANGE BUSINESS SERVICES","Etablissements":[{"Adresse":"9 BOULEVARD NICEPHORE NIEPCE 44300 NANTES","Activité":"Conseil en systèmes et logiciels informatiques","Salariés":"100 à 199 salariés","latitude":"47.275688","longitude":"-1.512161"},{"Adresse":"11 BOULEVARD NICEPHORE NIEPCE 44300 NANTES","Activité":"Conseil en systèmes et logiciels informatiques","Salariés":"20 à 49 salariés","latitude":"47.275895","longitude":"-1.512766"},{"Adresse":"10 BOULEVARD EMILE GABORY 44200 NANTES","Activité":"Conseil en systèmes et logiciels informatiques","Salariés":"Tranche inconnue","latitude":"47.196821","longitude":"-1.531457"},{"Adresse":"1 AVENUE DE LA GARE DE SAINT JOSEPH 44300 NANTES","Activité":"Conseil en systèmes et logiciels informatiques","Salariés":"Tranche inconnue","latitude":"47.251209","longitude":"-1.525279"},{"Adresse":"13 BOULEVARD MARTIN LUTHER KING 44300 NANTES","Activité":"Conseil en systèmes et logiciels informatiques","Salariés":"Tranche inconnue","latitude":"47.256245","longitude":"-1.555006"}]},{"Entreprise":"INETUM","Etablissements":[{"Adresse":"26 RUE DE L'EUROPE 44240 LA CHAPELLE-SUR-ERDRE","Activité":"Conseil en systèmes et logiciels informatiques","Salariés":"Tranche inconnue","latitude":"47.286911","longitude":"-1.542935"},{"Adresse":"58 RUE DE LORRAINE 44240 LA CHAPELLE-SUR-ERDRE","Activité":"Conseil en systèmes et logiciels informatiques","Salariés":"Tranche inconnue","latitude":"47.285059","longitude":"-1.544696"},{"Adresse":"ZERO NEWTON 3 PLACE ALBERT CAMUS 44300 NANTES","Activité":"Conseil en systèmes et logiciels informatiques","Salariés":"Tranche inconnue","latitude":"47.204802","longitude":"-1.562095"},{"Adresse":"22 RUE DE L'EUROPE 44240 LA CHAPELLE-SUR-ERDRE","Activité":"Conseil en systèmes et logiciels informatiques","Salariés":"Tranche inconnue","latitude":"47.286451","longitude":"-1.544157"},{"Adresse":"64 RUE DU LEINSTER 44240 LA CHAPELLE-SUR-ERDRE","Activité":"Programmation informatique","Salariés":"Tranche inconnue","latitude":"47.279382","longitude":"-1.551879"}]},{"Entreprise":"BULL SAS","Etablissements":[{"Adresse":"17 RUE CHRISTIAN PAUC 44300 NANTES","Activité":"Conseil en systèmes et logiciels informatiques","Salariés":"50 à 99 salariés","latitude":"47.283324","longitude":"-1.511829"}]},{"Entreprise":"FIDUCIAL INFORMATIQUE (ORGASOFT INFORMATIQUE)","Etablissements":[{"Adresse":"7 RUE JACQUES CARTIER 44800 SAINT-HERBLAIN","Activité":"Conseil en systèmes et logiciels informatiques","Salariés":"1 ou 2 salariés","latitude":"47.22321","longitude":"-1.635956"}]},{"Entreprise":"EURO INFORMATION DEVELOPPEMENTS (EID)","Etablissements":[{"Adresse":"2 AVENUE JEAN CLAUDE BONDUELLE 44000 NANTES","Activité":"Activité inconnue","Salariés":"Tranche inconnue","latitude":"47.212891","longitude":"-1.544641"},{"Adresse":"11 ROUTE DE CLISSON 44200 NANTES","Activité":"Gestion d'installations informatiques","Salariés":"6 à 9 salariés","latitude":"47.193293","longitude":"-1.528898"}]},{"Entreprise":"NXO FRANCE (NEXTIRAONE)","Etablissements":[{"Adresse":"AR MR PARC TERTIAIRE 11 IMPASSE SERGE REGGIANI 44800 SAINT-HERBLAIN","Activité":"Activité inconnue","Salariés":"100 à 199 salariés","latitude":"47.23158","longitude":"-1.626218"}]},{"Entreprise":"ALTEN (ALTEN)","Etablissements":[{"Adresse":"AR MOR III 13 IMPASSE SERGE REGGIANI 44800 SAINT-HERBLAIN","Activité":"Conseil en systèmes et logiciels informatiques","Salariés":"20 à 49 salariés","latitude":"47.23147","longitude":"-1.625779"}]},{"Entreprise":"EURO-INFORMATION PRODUCTION - GROUPEMENT INFORMATIQUE (EIP - GROUPEMENT INF)","Etablissements":[{"Adresse":"2 AVENUE JEAN CLAUDE BONDUELLE 44000 NANTES","Activité":"Activité inconnue","Salariés":"6 à 9 salariés","latitude":"47.212891","longitude":"-1.544641"},{"Adresse":"11 ROUTE DE CLISSON 44200 NANTES","Activité":"Activité inconnue","Salariés":"50 à 99 salariés","latitude":"47.193293","longitude":"-1.528898"}]},{"Entreprise":"ATOS FRANCE (ATOS ORIGIN)","Etablissements":[{"Adresse":"6 IMPASSE AUGUSTIN FRESNEL 44800 SAINT-HERBLAIN","Activité":"Conseil en systèmes et logiciels informatiques","Salariés":"Tranche inconnue","latitude":"47.228442","longitude":"-1.617867"},{"Adresse":"17 RUE CHRISTIAN PAUC 44300 NANTES","Activité":"Conseil en systèmes et logiciels informatiques","Salariés":"200 à 499 salariés","latitude":"47.283324","longitude":"-1.511829"}]},{"Entreprise":"SPIE ICS (APX HOPEN SYNSTAR - HOPEN)","Etablissements":[{"Adresse":"EUROPARC DE LA CHANTRERIE NORD 2 - 2 RUE EDOUARD NIGNON 44300 NANTES","Activité":"Conseil en systèmes et logiciels informatiques","Salariés":"200 à 499 salariés","latitude":"47.275568","longitude":"-1.510368"}]},{"Entreprise":"ALTRAN TECHNOLOGIES","Etablissements":[{"Adresse":"1 IMPASSE CHARLES TRENET 44800 SAINT-HERBLAIN","Activité":"Activité inconnue","Salariés":"500 à 999 salariés","latitude":"47.22706","longitude":"-1.62313"}]},{"Entreprise":"CIE IBM FRANCE (HR TECHNOLOGIES ET MANAGEMENT)","Etablissements":[{"Adresse":"IMMEUBLE AMPERE BT B 2 RUE MICHAEL FARADAY 44800 SAINT-HERBLAIN","Activité":"Conseil en systèmes et logiciels informatiques","Salariés":"50 à 99 salariés","latitude":"47.225413","longitude":"-1.618134"}]},{"Entreprise":"SOCIETE POUR L'INFORMATIQUE INDUSTRIELLE (SII)","Etablissements":[{"Adresse":"10 RUE MAGDELEINE BOULEVARD DE LA PRAIRIE AU DUC 44200 NANTES","Activité":"Conseil en systèmes et logiciels informatiques","Salariés":"Tranche inconnue","latitude":"47.204293","longitude":"-1.563428"},{"Adresse":"BOULEVARD DE LA PRAIRIE 10 RUE MAGDELEINE 44200 NANTES","Activité":"Conseil en systèmes et logiciels informatiques","Salariés":"Tranche inconnue","latitude":"47.204183","longitude":"-1.568338"}]},{"Entreprise":"EQUASENS (PHARMAGEST INTERACTIVE ROUSSEAU INF ORMA)","Etablissements":[{"Adresse":"PARC ATLANTIS IMMEUBLE SEXTANT 4 RUE JACQUES CARTIER 44800 SAINT-HERBLAIN","Activité":"Conseil en systèmes et logiciels informatiques","Salariés":"20 à 49 salariés","latitude":"47.223045","longitude":"-1.633365"}]},{"Entreprise":"EXPERIS FRANCE (EXPERIS - PROSERVIA FIELD SERVICES)","Etablissements":[{"Adresse":"15 RUE CHRISTIAN PAUC 44300 NANTES","Activité":"Gestion d'installations informatiques","Salariés":"Tranche inconnue","latitude":"47.283346","longitude":"-1.512825"}]},{"Entreprise":"AKKODIS I&S SAS (AKKODIS)","Etablissements":[{"Adresse":"IMMEUBLE LE TERMINAL 2 RUE DU CHARRON 44800 SAINT-HERBLAIN","Activité":"Conseil en systèmes et logiciels informatiques","Salariés":"Tranche inconnue","latitude":"47.222523","longitude":"-1.64021"}]},{"Entreprise":"CAPGEMINI ENGINEERING RESEARCH AND DEVELOPMENT","Etablissements":[{"Adresse":"IMMEUBLE AXEO 16 MAIL PABLO PICASSO 44000 NANTES","Activité":"Activité inconnue","Salariés":"6 à 9 salariés","latitude":"47.216057","longitude":"-1.53489"}]},{"Entreprise":"RANDSTAD DIGITAL FRANCE","Etablissements":[{"Adresse":"17-19-ZAC DE LA CHANTRERIE 1 17 RUE CHRISTIAN PAUC 44300 NANTES","Activité":"Conseil en systèmes et logiciels informatiques","Salariés":"Tranche inconnue","latitude":"47.283324","longitude":"-1.511829"}]},{"Entreprise":"APSIDE","Etablissements":[{"Adresse":"1 RUE DE LA HAUTE CASSERIE 44000 NANTES","Activité":"Activité inconnue","Salariés":"100 à 199 salariés","latitude":"47.215278","longitude":"-1.555801"}]},{"Entreprise":"BERGER LEVRAULT (BERGER LEVRAULT) (BL)","Etablissements":[{"Adresse":"3 RUE DU FINISTERE 44240 LA CHAPELLE-SUR-ERDRE","Activité":"Édition de logiciels applicatifs","Salariés":"20 à 49 salariés","latitude":"47.285865","longitude":"-1.541843"}]},{"Entreprise":"LOCAL.FR","Etablissements":[{"Adresse":"EXAPOLE BAT G 275 BOULEVARD MARCEL PAUL 44800 SAINT-HERBLAIN","Activité":"Activité inconnue","Salariés":"20 à 49 salariés","latitude":"47.229718","longitude":"-1.633356"}]},{"Entreprise":"AKKODIS DIGITAL SAS (MODIS)","Etablissements":[{"Adresse":"IMMEUBLE LE TERMINAL 2 RUE DU CHARRON 44800 SAINT-HERBLAIN","Activité":"Conseil en systèmes et logiciels informatiques","Salariés":"100 à 199 salariés","latitude":"47.222523","longitude":"-1.64021"}]},{"Entreprise":"CAT-AMANIA","Etablissements":[{"Adresse":"ZAC DE LA LORIE 31 RUE BOBBY SANDS 44800 SAINT-HERBLAIN","Activité":"Conseil en systèmes et logiciels informatiques","Salariés":"100 à 199 salariés","latitude":"47.234782","longitude":"-1.655564"}]},{"Entreprise":"SOPRA HR SOFTWARE","Etablissements":[{"Adresse":"ARMOR PLAZA - BATIMENT B&C IMPASSE CLAUDE NOUGARO 44800 SAINT-HERBLAIN","Activité":"Activité inconnue","Salariés":"Tranche inconnue","latitude":"47.227289","longitude":"-1.624487"},{"Adresse":"ARMOR 2 IMPASSE SERGE REGGIANI 44800 SAINT-HERBLAIN","Activité":"Activité inconnue","Salariés":"20 à 49 salariés","latitude":"47.231689","longitude":"-1.627057"}]},{"Entreprise":"ABSYS CYBORG (CYBORG TG SOFT CYBORG CREASOFT)","Etablissements":[{"Adresse":"PARC DU VIEUX MOULIN 104 RUE DU LEINSTER 44240 LA CHAPELLE-SUR-ERDRE","Activité":"Conseil en systèmes et logiciels informatiques","Salariés":"20 à 49 salariés","latitude":"47.279511","longitude":"-1.550717"}]},{"Entreprise":"INFOTEL CONSEIL","Etablissements":[{"Adresse":"AR MOR PARC TERTIAIRE 11 IMPASSE SERGE REGGIANI 44800 SAINT-HERBLAIN","Activité":"Activité inconnue","Salariés":"50 à 99 salariés","latitude":"47.23158","longitude":"-1.626218"}]},{"Entreprise":"SCALIAN DS (SCALIAN DIGITAL SYSTEMS)","Etablissements":[{"Adresse":"IMMEUBLE DES 3 LIONS 1 AVENUE DES LIONS 44800 SAINT-HERBLAIN","Activité":"Programmation informatique","Salariés":"50 à 99 salariés","latitude":"47.246325","longitude":"-1.617535"}]},{"Entreprise":"BPCE INFOGERANCE ET TECHNOLOGIES (BPCE-IT)","Etablissements":[{"Adresse":"12-14 12 RUE DES PILIERS DE LA CHAUVINIERE 44800 SAINT-HERBLAIN","Activité":"Conseil en systèmes et logiciels informatiques","Salariés":"50 à 99 salariés","latitude":"47.230692","longitude":"-1.635594"}]},{"Entreprise":"NEO SOFT SERVICES (NEO-SOFT SERVICES)","Etablissements":[{"Adresse":"ATLANTICA 1 BATIMENT 3 75 RUE DES FRANCAIS LIBRES 44200 NANTES","Activité":"Conseil en systèmes et logiciels informatiques","Salariés":"100 à 199 salariés","latitude":"47.206979","longitude":"-1.546135"}]},{"Entreprise":"ASTEK FRANCE","Etablissements":[{"Adresse":"2 RUE JACQUES BREL 44800 SAINT-HERBLAIN","Activité":"Conseil en systèmes et logiciels informatiques","Salariés":"Tranche inconnue","latitude":"47.233284","longitude":"-1.62925"}]},{"Entreprise":"CRISTAL'ID (CRISTAL'ID)","Etablissements":[{"Adresse":"13 RUE DU BOIS BRIAND 44300 NANTES","Activité":"Conseil en systèmes et logiciels informatiques","Salariés":"3 à 5 salariés","latitude":"47.249327","longitude":"-1.496353"}]},{"Entreprise":"ORACLE FRANCE","Etablissements":[{"Adresse":"CENTRE REGUS IMMEUBLE SKYLINE 22 MAIL PABLO PICASSO 44000 NANTES","Activité":"Édition de logiciels applicatifs","Salariés":"Tranche inconnue","latitude":"47.215219","longitude":"-1.536758"}]},{"Entreprise":"AMARIS FRANCE SAS (AMARIS)","Etablissements":[{"Adresse":"13 IMPASSE SERGE REGGIANI 44800 SAINT-HERBLAIN","Activité":"Activité inconnue","Salariés":"50 à 99 salariés","latitude":"47.23147","longitude":"-1.625779"}]},{"Entreprise":"OPEN","Etablissements":[{"Adresse":"11 ROUTE DE CLISSON 44200 NANTES","Activité":"Conseil en systèmes et logiciels informatiques","Salariés":"200 à 499 salariés","latitude":"47.193293","longitude":"-1.528898"}]},{"Entreprise":"KEYRUS (KEYRUS)","Etablissements":[{"Adresse":"BATIMENT B 12 RUE THESSALIE 44240 CHAPELLE-SUR-ERDRE (LA)","Activité":"Conseil en systèmes et logiciels informatiques","Salariés":"Tranche inconnue","latitude":"47.282055","longitude":"-1.548187"},{"Adresse":"CHANTRERIE 5 RUE JACQUES DAGUERRE 44300 NANTES","Activité":"Conseil en systèmes et logiciels informatiques","Salariés":"20 à 49 salariés","latitude":"47.274483","longitude":"-1.510329"}]},{"Entreprise":"CELAD (CELAD)","Etablissements":[{"Adresse":"275 BOULEVARD MARCEL PAUL 44800 SAINT-HERBLAIN","Activité":"Conseil en systèmes et logiciels informatiques","Salariés":"10 à 19 salariés","latitude":"47.229718","longitude":"-1.633356"},{"Adresse":"PARC DES GRESILLIERES 12 AVENUE JULES VERNE 44230 SAINT-SEBASTIEN-SUR-LOIRE","Activité":"Activité inconnue","Salariés":"Tranche inconnue","latitude":"47.210338","longitude":"-1.486716"}]},{"Entreprise":"ARINFO I-MAGINER","Etablissements":[{"Adresse":"1-5 1 RUE EMILE MASSON 44000 NANTES","Activité":"Activité inconnue","Salariés":"10 à 19 salariés","latitude":"47.213863","longitude":"-1.546537"}]},{"Entreprise":"ALTECA (ALTECA)","Etablissements":[{"Adresse":"IMMEUBLE ATALANTE 2 IMPASSE AUGUSTIN FRESNEL 44800 SAINT-HERBLAIN","Activité":"Conseil en systèmes et logiciels informatiques","Salariés":"20 à 49 salariés","latitude":"47.228442","longitude":"-1.617867"}]},{"Entreprise":"CREDIT AGRICOLE-GROUP INFRASTRUCTURE PLATFORM","Etablissements":[{"Adresse":"LA GARDE ROUTE DE PARIS 44300 NANTES","Activité":"Autres activités informatiques","Salariés":"50 à 99 salariés","latitude":"47.251168","longitude":"-1.517998"}]},{"Entreprise":"HOROQUARTZ (HOROQUARTZ) (H Q)","Etablissements":[{"Adresse":"ZAC DU MOULIN NEUF IMMEUBLE ATALANTE 2 IMPASSE AUGUSTIN FRESNEL 44800 SAINT-HERBLAIN","Activité":"Édition de logiciels applicatifs","Salariés":"50 à 99 salariés","latitude":"47.227267","longitude":"-1.618568"}]},{"Entreprise":"ARCHE MC2 (MOBISERV : CITYZEN : MEDISYS)","Etablissements":[{"Adresse":"27 RUE DE LA VRIERE 44240 LA CHAPELLE-SUR-ERDRE","Activité":"Édition de logiciels applicatifs","Salariés":"Tranche inconnue","latitude":"47.282964","longitude":"-1.550615"}]},{"Entreprise":"KOESIO DATA SOLUTIONS (KOESIO)","Etablissements":[{"Adresse":"14 RUE DE BRETAGNE 44240 LA CHAPELLE-SUR-ERDRE","Activité":"Édition de logiciels applicatifs","Salariés":"20 à 49 salariés","latitude":"47.285034","longitude":"-1.542269"}]},{"Entreprise":"SILAEXPERT","Etablissements":[{"Adresse":"LE PHARE DES ALIZES 4 RUE MARCEL PAUL 44000 NANTES","Activité":"Activité inconnue","Salariés":"Tranche inconnue","latitude":"47.214353","longitude":"-1.537292"}]},{"Entreprise":"INFORMATIQUE GRAPHISME ENERGETIQUE - \"I.G.E.\" (SEE ELECTRICAL)","Etablissements":[{"Adresse":"PARC TERTIAIRE VIEUX MOULIN - BAT A 104 RUE DU LEINSTER 44240 LA CHAPELLE-SUR-ERDRE","Activité":"Édition de logiciels applicatifs","Salariés":"Tranche inconnue","latitude":"47.279511","longitude":"-1.550717"}]},{"Entreprise":"APSIDE TECHNOLOGIES","Etablissements":[{"Adresse":"CASSERIE COURS DES 50 OTAGES 44000 NANTES","Activité":"Conseil en systèmes et logiciels informatiques","Salariés":"Tranche inconnue","latitude":"47.219566","longitude":"-1.555444"},{"Adresse":"COURS 50 OTAGES RUE DE LA HAUTE CASSERIE 44000 NANTES","Activité":"Conseil en systèmes et logiciels informatiques","Salariés":"Tranche inconnue","latitude":"47.215308","longitude":"-1.555806"}]},{"Entreprise":"MICROSOFT FRANCE","Etablissements":[{"Adresse":"16 QUAI ERNEST RENAUD 44300 NANTES","Activité":"Conseil en systèmes et logiciels informatiques","Salariés":"Tranche inconnue","latitude":"47.205689","longitude":"-1.574332"}]},{"Entreprise":"WE +","Etablissements":[{"Adresse":"1 IMPASSE SERGE REGGIANI 44800 SAINT-HERBLAIN","Activité":"Conseil en systèmes et logiciels informatiques","Salariés":"Tranche inconnue","latitude":"47.231917","longitude":"-1.628335"}]},{"Entreprise":"FACTORIA 2.0","Etablissements":[{"Adresse":"14 RUE DU CHEMIN ROUGE 44300 NANTES","Activité":"Conseil en systèmes et logiciels informatiques","Salariés":"1 ou 2 salariés","latitude":"47.252237","longitude":"-1.510715"}]},{"Entreprise":"HARDIS GROUPE (HARDIS GROUPE)","Etablissements":[{"Adresse":"1 IMPASSE SERGE REGGIANI 44800 SAINT-HERBLAIN","Activité":"Activité inconnue","Salariés":"50 à 99 salariés","latitude":"47.231917","longitude":"-1.628335"}]},{"Entreprise":"HAYS SERVICES","Etablissements":[{"Adresse":"ILOT 3D MAIL PABLO PICASSO 44000 NANTES","Activité":"Autres activités informatiques","Salariés":"Tranche inconnue","latitude":"47.215792","longitude":"-1.5348"}]},{"Entreprise":"ONEPOINT","Etablissements":[{"Adresse":"3 RUE LAVOISIER 44100 NANTES","Activité":"Conseil en systèmes et logiciels informatiques","Salariés":"Tranche inconnue","latitude":"47.209465","longitude":"-1.57183"}]},{"Entreprise":"SAPIENS GROUP (SAPIENS CONSULTING) (SPNS)","Etablissements":[{"Adresse":"5 BOULEVARD VINCENT GACHE 44200 NANTES","Activité":"Programmation informatique","Salariés":"3 à 5 salariés","latitude":"47.206411","longitude":"-1.54178"}]},{"Entreprise":"SHINING (FABIOLA)","Etablissements":[{"Adresse":"IMM. SKYLINE  EURONANTES GARE 22 MAIL PABLO PICASSO 44000 NANTES","Activité":"Activité inconnue","Salariés":"Tranche inconnue","latitude":"47.215219","longitude":"-1.536758"}]},{"Entreprise":"CALLIOPE BUSINESS SOLUTIONS","Etablissements":[{"Adresse":"CENTRE D'AFFAIRES 5 BOULEVARD VINCENT GACHE 44200 NANTES","Activité":"Conseil en systèmes et logiciels informatiques","Salariés":"20 à 49 salariés","latitude":"47.206411","longitude":"-1.54178"}]},{"Entreprise":"NORSYS SAS","Etablissements":[{"Adresse":"5EME ETAGE GREEN PARK 1 RTE DE LA CHATTERIE 44800 ST-HERBLAIN","Activité":"Conseil en systèmes et logiciels informatiques","Salariés":"Tranche inconnue","latitude":"47.244157","longitude":"-1.620137"}]},{"Entreprise":"SQLI (SQLI)","Etablissements":[{"Adresse":"1 BOULEVARD DE BERLIN 44000 NANTES","Activité":"Conseil en systèmes et logiciels informatiques","Salariés":"50 à 99 salariés","latitude":"47.213856","longitude":"-1.52991"}]},{"Entreprise":"NIJI (NIJI)","Etablissements":[{"Adresse":"10 RUE MAGDELEINE 44200 NANTES","Activité":"Conseil en systèmes et logiciels informatiques","Salariés":"100 à 199 salariés","latitude":"47.204183","longitude":"-1.568338"}]},{"Entreprise":"SOFTEAM (5710)","Etablissements":[{"Adresse":"PARC ARMOR TERTIAIRE BAT. B IMM. 4 IMPASSE CHARLES TRENET 44800 SAINT-HERBLAIN","Activité":"Édition de logiciels applicatifs","Salariés":"Tranche inconnue","latitude":"47.22706","longitude":"-1.62313"}]},{"Entreprise":"INSIDE (INSIDE)","Etablissements":[{"Adresse":"1-3 1 RUE JACQUES DAGUERRE 44300 NANTES","Activité":"Conseil en systèmes et logiciels informatiques","Salariés":"Tranche inconnue","latitude":"47.274887","longitude":"-1.510792"}]},{"Entreprise":"1 LIFE","Etablissements":[{"Adresse":"3 RUE GUGLIELMO MARCONI 44800 SAINT-HERBLAIN","Activité":"Programmation informatique","Salariés":"Tranche inconnue","latitude":"47.227968","longitude":"-1.619652"}]},{"Entreprise":"AFB FRANCE (AFB DES SAVOIE)","Etablissements":[{"Adresse":"3 RUE DE LA GRANDE BRETAGNE 44300 NANTES","Activité":"Conseil en systèmes et logiciels informatiques","Salariés":"20 à 49 salariés","latitude":"47.259811","longitude":"-1.509124"},{"Adresse":"8 RUE DE SAINT DOMINGUE 44200 NANTES","Activité":"Conseil en systèmes et logiciels informatiques","Salariés":"Tranche inconnue","latitude":"47.201392","longitude":"-1.571388"}]},{"Entreprise":"CLEVER AGE","Etablissements":[{"Adresse":"4 RUE DES OLIVETTES 44000 NANTES","Activité":"Conseil en systèmes et logiciels informatiques","Salariés":"10 à 19 salariés","latitude":"47.21201","longitude":"-1.550087"}]},{"Entreprise":"BLC-CONSEIL","Etablissements":[{"Adresse":"2 RUE CRUCY 44000 NANTES","Activité":"Conseil en systèmes et logiciels informatiques","Salariés":"Tranche inconnue","latitude":"47.214826","longitude":"-1.546437"}]},{"Entreprise":"LITTLE WORKER","Etablissements":[{"Adresse":"40 RUE LA TOUR D'AUVERGNE 44200 NANTES","Activité":"Programmation informatique","Salariés":"Tranche inconnue","latitude":"47.20603","longitude":"-1.560297"}]},{"Entreprise":"NEXT DECISION","Etablissements":[{"Adresse":"31 RUE FOURE 44000 NANTES","Activité":"Conseil en systèmes et logiciels informatiques","Salariés":"100 à 199 salariés","latitude":"47.211532","longitude":"-1.54679"}]},{"Entreprise":"INTM (NSIS ODYSSEE CONSEIL - INTM GROUPE - ALDEA)","Etablissements":[{"Adresse":"PARC EXAPOLE 275 BOULEVARD MARCEL PAUL 44800 SAINT-HERBLAIN","Activité":"Conseil en systèmes et logiciels informatiques","Salariés":"Tranche inconnue","latitude":"47.229718","longitude":"-1.633356"}]},{"Entreprise":"CONSULTIME","Etablissements":[{"Adresse":"IMMEUBLE ASTURIA C 4 RUE EDITH PIAF 44800 SAINT-HERBLAIN","Activité":"Conseil en systèmes et logiciels informatiques","Salariés":"3 à 5 salariés","latitude":"47.22774","longitude":"-1.623176"}]},{"Entreprise":"VISEO","Etablissements":[{"Adresse":"13 RUE DE LA RABOTIERE 44800 SAINT-HERBLAIN","Activité":"Conseil en systèmes et logiciels informatiques","Salariés":"Tranche inconnue","latitude":"47.211754","longitude":"-1.620654"}]},{"Entreprise":"SQUAD","Etablissements":[{"Adresse":"PARC DE L ANGEVINIERE 15 BOULEVARD MARCEL PAUL 44800 SAINT-HERBLAIN","Activité":"Conseil en systèmes et logiciels informatiques","Salariés":"Tranche inconnue","latitude":"47.247862","longitude":"-1.615551"}]},{"Entreprise":"JEHANN (JEHANN)","Etablissements":[{"Adresse":"3 BOULEVARD DES MARTYRS NANTAIS DE LA RESISTANCE 44300 NANTES","Activité":"Conseil en systèmes et logiciels informatiques","Salariés":"3 à 5 salariés","latitude":"47.206359","longitude":"-1.54783"}]},{"Entreprise":"SKEEPERS","Etablissements":[{"Adresse":"WHOORKS NANTES GARE SUD - SKEEPERS 17 BOULEVARD DE BERLIN 44000 NANTES","Activité":"Programmation informatique","Salariés":"Tranche inconnue","latitude":"47.21625","longitude":"-1.537549"}]},{"Entreprise":"SOLUTEC","Etablissements":[{"Adresse":"SPACE EURONANTES 9 BOULEVARD DE BERLIN 44000 NANTES","Activité":"Conseil en systèmes et logiciels informatiques","Salariés":"Tranche inconnue","latitude":"47.215892","longitude":"-1.532342"}]},{"Entreprise":"DATASOLUTION","Etablissements":[{"Adresse":"6 RUE RENE VIVIANI 44200 NANTES","Activité":"Programmation informatique","Salariés":"Tranche inconnue","latitude":"47.207631","longitude":"-1.536619"}]},{"Entreprise":"SIEMENS INDUSTRY SOFTWARE SAS (TEAM CENTER-PARASOLID-UNIGRAPHICS-SOLID EDGE-SIEMENS PLM SOFTWARE-NX-TECNOMATIX-UGS VELOCITY SERIES-)","Etablissements":[{"Adresse":"18 RUE DE LA PETITE SENSIVE 44300 NANTES","Activité":"Conseil en systèmes et logiciels informatiques","Salariés":"Tranche inconnue","latitude":"47.259973","longitude":"-1.561347"}]},{"Entreprise":"EXAKIS NELITE","Etablissements":[{"Adresse":"LE SKYLINE 26 MAIL PABLO PICASSO 44000 NANTES","Activité":"Conseil en systèmes et logiciels informatiques","Salariés":"50 à 99 salariés","latitude":"47.214867","longitude":"-1.537545"}]},{"Entreprise":"CREATIVE INNOVATION","Etablissements":[{"Adresse":"IMMEUBLE ARMEN 2 IMPASSE CHARLES TRENET 44800 SAINT-HERBLAIN","Activité":"Conseil en systèmes et logiciels informatiques","Salariés":"10 à 19 salariés","latitude":"47.22706","longitude":"-1.62313"}]},{"Entreprise":"TGS FRANCE INFORMATIQUE (TGS FRANCE)","Etablissements":[{"Adresse":"IMMEUBLE LES REFLETS 7 RUE JACQUES BREL 44800 SAINT-HERBLAIN","Activité":"Conseil en systèmes et logiciels informatiques","Salariés":"Tranche inconnue","latitude":"47.2327","longitude":"-1.630017"}]},{"Entreprise":"DERNIER CRI (INFO TIER SA)","Etablissements":[{"Adresse":"39 RUE DES OLIVETTES 44000 NANTES","Activité":"Programmation informatique","Salariés":"20 à 49 salariés","latitude":"47.210384","longitude":"-1.549055"}]},{"Entreprise":"ISAGRI (ISAGRI, AGIRIS, TERRE-NET, SO'NEO, PROMIZE, C2J INFO, I-CONE)","Etablissements":[{"Adresse":"3 RUE DU CHARRON 44800 SAINT-HERBLAIN","Activité":"Édition de logiciels applicatifs","Salariés":"Tranche inconnue","latitude":"47.222854","longitude":"-1.641608"}]},{"Entreprise":"APLICIT (APLISIM)","Etablissements":[{"Adresse":"10 AVENUE DES JADES 44300 NANTES","Activité":"Conseil en systèmes et logiciels informatiques","Salariés":"Tranche inconnue","latitude":"47.261373","longitude":"-1.494874"}]},{"Entreprise":"SILAE","Etablissements":[{"Adresse":"LE PHARE DES ALIZES 4 RUE MARCEL PAUL 44000 NANTES","Activité":"Édition de logiciels applicatifs","Salariés":"Tranche inconnue","latitude":"47.214353","longitude":"-1.537292"}]},{"Entreprise":"DECIVISION","Etablissements":[{"Adresse":"BATIMENT B 11 RUE DU CHEMIN ROUGE 44300 NANTES","Activité":"Conseil en systèmes et logiciels informatiques","Salariés":"10 à 19 salariés","latitude":"47.251905","longitude":"-1.511283"}]},{"Entreprise":"PCIS","Etablissements":[{"Adresse":"11 RUE D'ATHENES 44300 NANTES","Activité":"Conseil en systèmes et logiciels informatiques","Salariés":"1 ou 2 salariés","latitude":"47.249394","longitude":"-1.504938"}]},{"Entreprise":"FIDENS (FIDENS)","Etablissements":[{"Adresse":"12 ALLEE DUGUAY TROUIN 44000 NANTES","Activité":"Conseil en systèmes et logiciels informatiques","Salariés":"Tranche inconnue","latitude":"47.213129","longitude":"-1.555918"}]},{"Entreprise":"CADWORK FRANCE","Etablissements":[{"Adresse":"CTRE D'AFFAIRES WHOME 8 RUE JACQUES CARTIER 44800 SAINT-HERBLAIN","Activité":"Programmation informatique","Salariés":"Tranche inconnue","latitude":"47.223384","longitude":"-1.635125"}]},{"Entreprise":"SEENOVATE (TWIN SOLUTIONS ; BR3 CONSULTANTS)","Etablissements":[{"Adresse":"CENTRE D'AFFAIRES WHOME 8 RUE JACQUES CARTIER 44800 SAINT-HERBLAIN","Activité":"Conseil en systèmes et logiciels informatiques","Salariés":"Tranche inconnue","latitude":"47.223384","longitude":"-1.635125"}]},{"Entreprise":"SYXPERIANE GROUP","Etablissements":[{"Adresse":"3 MAIL DU FRONT POPULAIRE 44200 NANTES","Activité":"Conseil en systèmes et logiciels informatiques","Salariés":"Tranche inconnue","latitude":"47.206577","longitude":"-1.562882"}]},{"Entreprise":"NEXTLANE FRANCE","Etablissements":[{"Adresse":"2 RUE RENE VIVIANI 44200 NANTES","Activité":"Édition de logiciels applicatifs","Salariés":"Tranche inconnue","latitude":"47.206486","longitude":"-1.538077"}]},{"Entreprise":"EASYVISTA (EASYVISTA)","Etablissements":[{"Adresse":"IMMEUBLE LA FREGATE 19 RUE JACQUES CARTIER 44800 SAINT-HERBLAIN","Activité":"Édition de logiciels applicatifs","Salariés":"10 à 19 salariés","latitude":"47.226535","longitude":"-1.634855"}]},{"Entreprise":"KPMG TECH","Etablissements":[{"Adresse":"10 PROMENADE EUROPA 44200 NANTES","Activité":"Activité inconnue","Salariés":"10 à 19 salariés","latitude":"47.209021","longitude":"-1.539607"}]},{"Entreprise":"ONAYA","Etablissements":[{"Adresse":"TECHNOPARC DE L AUBINIERE BATIMENT F 4 AVENUE DES JADES 44300 NANTES","Activité":"Conseil en systèmes et logiciels informatiques","Salariés":"3 à 5 salariés","latitude":"47.261058","longitude":"-1.4957"}]},{"Entreprise":"GROUPE ISIA","Etablissements":[{"Adresse":"BAT.ODYSSEA 17 RUE OCEANE 44800 SAINT-HERBLAIN","Activité":"Programmation informatique","Salariés":"Tranche inconnue","latitude":"47.227186","longitude":"-1.634734"}]},{"Entreprise":"LISTENTOO","Etablissements":[{"Adresse":"42-43-VACOUVA 42 QUAI MALAKOFF 44000 NANTES","Activité":"Activité inconnue","Salariés":"20 à 49 salariés","latitude":"47.214542","longitude":"-1.540936"}]},{"Entreprise":"2PACE (2PACE) (2PACE)","Etablissements":[{"Adresse":"41-43 41 QUAI MALAKOFF 44000 NANTES","Activité":"Conseil en systèmes et logiciels informatiques","Salariés":"Tranche inconnue","latitude":"47.214444","longitude":"-1.540784"}]},{"Entreprise":"DELAWARE CONSULTING","Etablissements":[{"Adresse":"5 RUE DE GORGES 44000 NANTES","Activité":"Conseil en systèmes et logiciels informatiques","Salariés":"Tranche inconnue","latitude":"47.21403","longitude":"-1.558367"}]},{"Entreprise":"TRSB DIGIWIN (TRSB DIGIWIN)","Etablissements":[{"Adresse":"32 BOULEVARD VINCENT GACHE 44200 NANTES","Activité":"Conseil en systèmes et logiciels informatiques","Salariés":"20 à 49 salariés","latitude":"47.206188","longitude":"-1.547516"}]},{"Entreprise":"TVH CONSULTING (TVH CONSULTING)","Etablissements":[{"Adresse":"12 ALLEE DUGUAY TROUIN 44000 NANTES","Activité":"Conseil en systèmes et logiciels informatiques","Salariés":"6 à 9 salariés","latitude":"47.213129","longitude":"-1.555918"}]},{"Entreprise":"U-NEED","Etablissements":[{"Adresse":"GREEN 1 CHEMIN DE LA CHATTERIE 44800 SAINT-HERBLAIN","Activité":"Activité inconnue","Salariés":"Tranche inconnue","latitude":"47.244157","longitude":"-1.620137"}]},{"Entreprise":"DIGITAL PRODUCT SIMULATION","Etablissements":[{"Adresse":"28 RUE DE STRASBOURG 44000 NANTES","Activité":"Conseil en systèmes et logiciels informatiques","Salariés":"0 salarié","latitude":"47.217497","longitude":"-1.552405"}]},{"Entreprise":"WEBNET","Etablissements":[{"Adresse":"3 BOULEVARD DE LA LOIRE 44200 NANTES","Activité":"Conseil en systèmes et logiciels informatiques","Salariés":"Tranche inconnue","latitude":"47.211509","longitude":"-1.527313"}]},{"Entreprise":"HN SERVICES","Etablissements":[{"Adresse":"8 RUE MERCOEUR 44000 NANTES","Activité":"Conseil en systèmes et logiciels informatiques","Salariés":"Tranche inconnue","latitude":"47.217485","longitude":"-1.560198"}]},{"Entreprise":"AVANADE FRANCE","Etablissements":[{"Adresse":"LE LIBERTY 68 BOULEVARD MARCEL PAUL 44800 SAINT-HERBLAIN","Activité":"Programmation informatique","Salariés":"50 à 99 salariés","latitude":"47.244579","longitude":"-1.618631"}]},{"Entreprise":"SPIKEELABS","Etablissements":[{"Adresse":"17 BOULEVARD DE BERLIN 44000 NANTES","Activité":"Conseil en systèmes et logiciels informatiques","Salariés":"3 à 5 salariés","latitude":"47.21625","longitude":"-1.537549"}]},{"Entreprise":"RSF COM","Etablissements":[{"Adresse":"LE CALYPSO 2 IMPASSE SERGE REGGIANI 44800 SAINT-HERBLAIN","Activité":"Programmation informatique","Salariés":"Tranche inconnue","latitude":"47.231777","longitude":"-1.627762"}]},{"Entreprise":"YOUNUP","Etablissements":[{"Adresse":"7 MAIL PABLO PICASSO 44000 NANTES","Activité":"Conseil en systèmes et logiciels informatiques","Salariés":"Tranche inconnue","latitude":"47.215907030968395","longitude":"-1.5341410672092268"},{"Adresse":"IMM. LE MERCURE, BAT. A 10 RUE GAETAN RONDEAU 44200 NANTES","Activité":"Conseil en systèmes et logiciels informatiques","Salariés":"50 à 99 salariés","latitude":"47.20631499999998","longitude":"-1.5352629999999974"}]},{"Entreprise":"SFEIR","Etablissements":[{"Adresse":"IMMEUBLE LA HALLE 6 EST 40 RUE LA TOUR D'AUVERGNE 44200 NANTES","Activité":"Programmation informatique","Salariés":"Tranche inconnue","latitude":"47.20603","longitude":"-1.560297"}]},{"Entreprise":"AUBAY (AUBRAY PROJIPE)","Etablissements":[{"Adresse":"5 BOULEVARD VINCENT GACHE 44200 NANTES","Activité":"Conseil en systèmes et logiciels informatiques","Salariés":"50 à 99 salariés","latitude":"47.206411","longitude":"-1.54178"}]},{"Entreprise":"OBJECTWARE N.E (O.N.E)","Etablissements":[{"Adresse":"6 RUE RENE VIVIANI 44200 NANTES","Activité":"Conseil en systèmes et logiciels informatiques","Salariés":"Tranche inconnue","latitude":"47.207631","longitude":"-1.536619"}]},{"Entreprise":"CAPENSIS","Etablissements":[{"Adresse":"18 RUE LOUIS BLANC 44200 NANTES","Activité":"Conseil en systèmes et logiciels informatiques","Salariés":"3 à 5 salariés","latitude":"47.206177","longitude":"-1.554962"}]},{"Entreprise":"TRADIM","Etablissements":[{"Adresse":"8 ALLEE BRANCAS 44000 NANTES","Activité":"Conseil en systèmes et logiciels informatiques","Salariés":"Tranche inconnue","latitude":"47.213756","longitude":"-1.556578"}]},{"Entreprise":"UNIT 4 BUSINESS SOFTWARE FRANCE (AGRESSO FRANCE SA)","Etablissements":[{"Adresse":"10 RUE CHARLES BRUNELLIERE 44100 NANTES","Activité":"Édition de logiciels applicatifs","Salariés":"Tranche inconnue","latitude":"47.209356","longitude":"-1.569323"}]},{"Entreprise":"AVANTEAM (GEDYS VRC TECHNOLOGIES)","Etablissements":[{"Adresse":"HUB CREATIC 2EME ETAGE 6 RUE ROSE DIENG-KUNTZ 44300 NANTES","Activité":"Édition de logiciels applicatifs","Salariés":"3 à 5 salariés","latitude":"47.283804","longitude":"-1.515469"}]},{"Entreprise":"ARGAIN CONSULTING INNOVATION (ARGAIN FORMATION - ARGAIN CONSEIL...)","Etablissements":[{"Adresse":"1 IMPASSE SERGE REGGIANI 44800 SAINT-HERBLAIN","Activité":"Activité inconnue","Salariés":"Tranche inconnue","latitude":"47.231917","longitude":"-1.628335"}]},{"Entreprise":"KUBIC TECHNOLOGY","Etablissements":[{"Adresse":"34 B BOULEVARD GABRIEL GUIST'HAU 44000 NANTES","Activité":"Conseil en systèmes et logiciels informatiques","Salariés":"Tranche inconnue","latitude":"47.217537","longitude":"-1.568211"}]},{"Entreprise":"ALMOND","Etablissements":[{"Adresse":"IMMEUBLE ASTURIA C 4 RUE EDITH PIAF 44800 SAINT-HERBLAIN","Activité":"Conseil en systèmes et logiciels informatiques","Salariés":"Tranche inconnue","latitude":"47.22774","longitude":"-1.623176"}]},{"Entreprise":"FASTCUBE","Etablissements":[{"Adresse":"5 PLACE RENE BOUHIER 44100 NANTES","Activité":"Conseil en systèmes et logiciels informatiques","Salariés":"Tranche inconnue","latitude":"47.209306","longitude":"-1.570252"}]},{"Entreprise":"SEMANTYS","Etablissements":[{"Adresse":"IMMEUBLE METRONOMY 2 RUE JACQUES BREL 44800 SAINT-HERBLAIN","Activité":"Conseil en systèmes et logiciels informatiques","Salariés":"Tranche inconnue","latitude":"47.233284","longitude":"-1.62925"}]},{"Entreprise":"NOWPROD","Etablissements":[{"Adresse":"1 AVENUE DE L'ANGEVINIERE 44800 SAINT-HERBLAIN","Activité":"Conseil en systèmes et logiciels informatiques","Salariés":"Tranche inconnue","latitude":"47.244729","longitude":"-1.608338"}]},{"Entreprise":"SNCF CONNECT & TECH SERVICES","Etablissements":[{"Adresse":"ILOT JALLAIS 16 RUE DE CORNULIER 44000 NANTES","Activité":"Édition de logiciels applicatifs","Salariés":"Tranche inconnue","latitude":"47.214643","longitude":"-1.540021"},{"Adresse":"IMMEUBLE ACTIPOLE RUE FRANCOIS EVELLIN 44000 NANTES","Activité":"Activité inconnue","Salariés":"Tranche inconnue","latitude":"47.219364","longitude":"-1.538972"}]},{"Entreprise":"SOFIA DEV (SD)","Etablissements":[{"Adresse":"22 BOULEVARD DE BERLIN 44000 NANTES","Activité":"Édition de logiciels applicatifs","Salariés":"Tranche inconnue","latitude":"47.21664","longitude":"-1.536489"}]},{"Entreprise":"MIDDLEWAY (MIDDLEWAY) (MW)","Etablissements":[{"Adresse":"5 RUE REGNARD 44000 NANTES","Activité":"Programmation informatique","Salariés":"Tranche inconnue","latitude":"47.212727","longitude":"-1.561916"}]},{"Entreprise":"HUMAPRO","Etablissements":[{"Adresse":"IMMEUBLE ZERO NEWTON ILE DE NANTES 3 PLACE ALBERT CAMUS 44300 NANTES","Activité":"Programmation informatique","Salariés":"1 ou 2 salariés","latitude":"47.204802","longitude":"-1.562095"}]},{"Entreprise":"MICROPOLE NORD OUEST","Etablissements":[{"Adresse":"25-27 25 RUE PAUL BELLAMY 44000 NANTES","Activité":"Conseil en systèmes et logiciels informatiques","Salariés":"50 à 99 salariés","latitude":"47.222623","longitude":"-1.557053"}]},{"Entreprise":"B. WORKSHOP","Etablissements":[{"Adresse":"17 BOULEVARD DE BERLIN 44000 NANTES","Activité":"Conseil en systèmes et logiciels informatiques","Salariés":"6 à 9 salariés","latitude":"47.21625","longitude":"-1.537549"}]},{"Entreprise":"INOVAXO (COGETI LOGIWIN)","Etablissements":[{"Adresse":"11 RUE DU PETIT CHATELIER 44300 NANTES","Activité":"Programmation informatique","Salariés":"50 à 99 salariés","latitude":"47.245622","longitude":"-1.505916"}]},{"Entreprise":"ALPHA 2 F (A2F)","Etablissements":[{"Adresse":"1 IMPASSE SERGE REGGIANI 44800 SAINT-HERBLAIN","Activité":"Activité inconnue","Salariés":"20 à 49 salariés","latitude":"47.231917","longitude":"-1.628335"}]},{"Entreprise":"AAREON FRANCE","Etablissements":[{"Adresse":"1 RUE DU GUESCLIN 44000 NANTES","Activité":"Conseil en systèmes et logiciels informatiques","Salariés":"6 à 9 salariés","latitude":"47.212895","longitude":"-1.556078"}]},{"Entreprise":"SYXPERIANE (PARTESYS - HEXSII)","Etablissements":[{"Adresse":"3 MAIL DU FRONT POPULAIRE 44200 NANTES","Activité":"Conseil en systèmes et logiciels informatiques","Salariés":"Tranche inconnue","latitude":"47.206577","longitude":"-1.562882"}]},{"Entreprise":"EXPERTIME","Etablissements":[{"Adresse":"EUROPARC DE LA CHANTERIE 10 RUE EDOUARD NIGNON 44300 NANTES","Activité":"Conseil en systèmes et logiciels informatiques","Salariés":"20 à 49 salariés","latitude":"47.276452","longitude":"-1.510204"}]},{"Entreprise":"ACCENTURE TECHNOLOGY SOLUTIONS","Etablissements":[{"Adresse":"LIBERTY BAT A 68 BOULEVARD MARCEL PAUL 44800 SAINT-HERBLAIN","Activité":"Autres activités informatiques","Salariés":"500 à 999 salariés","latitude":"47.244579","longitude":"-1.618631"}]},{"Entreprise":"LA COOPERATIVE DES TILLEULS (LES-TILLEULS.COOP)","Etablissements":[{"Adresse":"2 B RUE DES OLIVETTES 44000 NANTES","Activité":"Conseil en systèmes et logiciels informatiques","Salariés":"Tranche inconnue","latitude":"47.212441","longitude":"-1.550324"}]},{"Entreprise":"ISATECH (GROUPE ISATECH)","Etablissements":[{"Adresse":"LE SOLET PARC TERTIARE OPUS LIEUDIT 8 CHEMIN DE LA CHATTERIE 44800 SAINT-HERBLAIN","Activité":"Programmation informatique","Salariés":"20 à 49 salariés","latitude":"47.244546","longitude":"-1.620785"}]},{"Entreprise":"A5SYS","Etablissements":[{"Adresse":"LA BERNARDIERE 44800 ST-HERBLAIN","Activité":"Conseil en systèmes et logiciels informatiques","Salariés":"Tranche inconnue","latitude":"47.225466","longitude":"-1.647411"},{"Adresse":"10 BOULEVARD DU ZENITH 44800 SAINT-HERBLAIN","Activité":"Conseil en systèmes et logiciels informatiques","Salariés":"50 à 99 salariés","latitude":"47.231941","longitude":"-1.62839"}]},{"Entreprise":"IN-IT","Etablissements":[{"Adresse":"4 RUE DU DEVON 44240 LA CHAPELLE-SUR-ERDRE","Activité":"Édition de logiciels applicatifs","Salariés":"Tranche inconnue","latitude":"47.280391","longitude":"-1.553684"}]},{"Entreprise":"MERITIS REGIONS","Etablissements":[{"Adresse":"1 RUE EUGENE VARLIN 44100 NANTES","Activité":"Conseil en systèmes et logiciels informatiques","Salariés":"Tranche inconnue","latitude":"47.207321","longitude":"-1.572968"}]},{"Entreprise":"WAVESTONE (HAPSIS)","Etablissements":[{"Adresse":"LE TRIPODE  6 RUE NATHALIE SARRAUTE 44200 NANTES","Activité":"Conseil en systèmes et logiciels informatiques","Salariés":"Tranche inconnue","latitude":"47.208947","longitude":"-1.540638"}]},{"Entreprise":"D.I.M.O SOFTWARE","Etablissements":[{"Adresse":"ZAC DE LA CHANTRERIE 3 RUE ALFRED KASTLER 44300 NANTES","Activité":"Édition de logiciels applicatifs","Salariés":"1 ou 2 salariés","latitude":"47.28197","longitude":"-1.518503"}]},{"Entreprise":"J H D (J.H.D.)","Etablissements":[{"Adresse":"IMMEUBLE ASTURIA C 4 RUE EDITH PIAF 44800 SAINT-HERBLAIN","Activité":"Conseil en systèmes et logiciels informatiques","Salariés":"3 à 5 salariés","latitude":"47.22774","longitude":"-1.623176"}]},{"Entreprise":"ATEMIS (ATEMIS)","Etablissements":[{"Adresse":"ZAC  DE MALABRY 11 RUE DE BRETAGNE 44240 LA CHAPELLE-SUR-ERDRE","Activité":"Conseil en systèmes et logiciels informatiques","Salariés":"20 à 49 salariés","latitude":"47.284427","longitude":"-1.542127"}]},{"Entreprise":"VERSA","Etablissements":[{"Adresse":"6 RUE MATHELIN RODIER 44000 NANTES","Activité":"Programmation informatique","Salariés":"Tranche inconnue","latitude":"47.21723","longitude":"-1.550469"}]},{"Entreprise":"AB TASTY","Etablissements":[{"Adresse":"4 RUE VOLTAIRE 44000 NANTES","Activité":"Conseil en systèmes et logiciels informatiques","Salariés":"10 à 19 salariés","latitude":"47.212822","longitude":"-1.563372"}]},{"Entreprise":"COMETIK","Etablissements":[{"Adresse":"4 RUE EDITH PIAF 44800 SAINT-HERBLAIN","Activité":"Programmation informatique","Salariés":"Tranche inconnue","latitude":"47.22774","longitude":"-1.623176"}]},{"Entreprise":"AKTEA","Etablissements":[{"Adresse":"1-3 1 RUE JACQUES DAGUERRE 44300 NANTES","Activité":"Traitement de données, hébergement et activités connexes","Salariés":"Tranche inconnue","latitude":"47.274887","longitude":"-1.510792"}]},{"Entreprise":"AUTOPROG","Etablissements":[{"Adresse":"2 AVENUE DES AMETHYSTES 44300 NANTES","Activité":"Programmation informatique","Salariés":"1 ou 2 salariés","latitude":"47.260521","longitude":"-1.495455"}]},{"Entreprise":"7 OPTEAM","Etablissements":[{"Adresse":"1 RUE DU GUESCLIN 44000 NANTES","Activité":"Conseil en systèmes et logiciels informatiques","Salariés":"10 à 19 salariés","latitude":"47.212895","longitude":"-1.556078"},{"Adresse":"11 BOULEVARD GABRIEL GUIST'HAU 44000 NANTES","Activité":"Conseil en systèmes et logiciels informatiques","Salariés":"Tranche inconnue","latitude":"47.215864","longitude":"-1.565509"}]},{"Entreprise":"OCEANE CONSULTING DM","Etablissements":[{"Adresse":"31 BOULEVARD ALBERT EINSTEIN 44300 NANTES","Activité":"Conseil en systèmes et logiciels informatiques","Salariés":"Tranche inconnue","latitude":"47.263807","longitude":"-1.570519"},{"Adresse":"IMMEUBLE ASTURIA C 4 RUE EDITH PIAF 44800 SAINT-HERBLAIN","Activité":"Conseil en systèmes et logiciels informatiques","Salariés":"Tranche inconnue","latitude":"47.22774","longitude":"-1.623176"}]},{"Entreprise":"DEVENSYS (DEVENSYS CYBERSECURITY)","Etablissements":[{"Adresse":"22 MAIL PABLO PICASSO 44000 NANTES","Activité":"Conseil en systèmes et logiciels informatiques","Salariés":"Tranche inconnue","latitude":"47.215219","longitude":"-1.536758"}]},{"Entreprise":"FINANCE ACTIVE","Etablissements":[{"Adresse":"3 PLACE ALBERT CAMUS 44300 NANTES","Activité":"Activité inconnue","Salariés":"3 à 5 salariés","latitude":"47.204802","longitude":"-1.562095"}]},{"Entreprise":"IDEOLYS (IDEOLYS)","Etablissements":[{"Adresse":"15 QUAI ERNEST RENAUD 44300 NANTES","Activité":"Conseil en systèmes et logiciels informatiques","Salariés":"20 à 49 salariés","latitude":"47.206443","longitude":"-1.573541"}]},{"Entreprise":"GUARANI","Etablissements":[{"Adresse":"4 RUE D'ERLON 44000 NANTES","Activité":"Programmation informatique","Salariés":"Tranche inconnue","latitude":"47.218848","longitude":"-1.561907"}]},{"Entreprise":"STIMULAB (STIMULAB)","Etablissements":[{"Adresse":"HALLE 6 EST 40 RUE LA TOUR D'AUVERGNE 44200 NANTES","Activité":"Conseil en systèmes et logiciels informatiques","Salariés":"Tranche inconnue","latitude":"47.20603","longitude":"-1.560297"}]},{"Entreprise":"FLOW LINE INTEGRATION (FLOW LINE INTEGRATION)","Etablissements":[{"Adresse":"12 AVENUE CARNOT 44000 NANTES","Activité":"Programmation informatique","Salariés":"1 ou 2 salariés","latitude":"47.213722","longitude":"-1.545321"}]},{"Entreprise":"MOSICA (MOSICA)","Etablissements":[{"Adresse":"LES TERRASSE DU MANOIR 2 AVENUE RECTEUR PIRONNEAU 44300 NANTES","Activité":"Programmation informatique","Salariés":"20 à 49 salariés","latitude":"47.247752","longitude":"-1.532836"}]},{"Entreprise":"OUIDOU CONSULTING","Etablissements":[{"Adresse":"2 RUE CRUCY 44000 NANTES","Activité":"Activité inconnue","Salariés":"Tranche inconnue","latitude":"47.214826","longitude":"-1.546437"}]},{"Entreprise":"CELLENZA","Etablissements":[{"Adresse":"3 PLACE DE LA MONNAIE 44000 NANTES","Activité":"Édition de logiciels applicatifs","Salariés":"Tranche inconnue","latitude":"47.213186","longitude":"-1.565507"}]},{"Entreprise":"E-VALUATIO (E-TESTING)","Etablissements":[{"Adresse":"8 RUE DES BATEAUX LAVOIRS 44000 NANTES","Activité":"Programmation informatique","Salariés":"10 à 19 salariés","latitude":"47.23298","longitude":"-1.546913"},{"Adresse":"ZAC DE L ERAUDIERE 32 RUE DE COULONGE 44300 NANTES","Activité":"Activité inconnue","Salariés":"Tranche inconnue","latitude":"47.243348","longitude":"-1.537556"},{"Adresse":"1 IMPASSE DES TOURMALINES 44300 NANTES","Activité":"Activité inconnue","Salariés":"Tranche inconnue","latitude":"47.260405","longitude":"-1.497192"}]},{"Entreprise":"PARTENOR","Etablissements":[{"Adresse":"12 AVENUE CARNOT 44000 NANTES","Activité":"Conseil en systèmes et logiciels informatiques","Salariés":"Tranche inconnue","latitude":"47.213722","longitude":"-1.545321"}]},{"Entreprise":"MERCURIA","Etablissements":[{"Adresse":"5 RUE DE LA TOSCANE 44240 LA CHAPELLE-SUR-ERDRE","Activité":"Édition de logiciels applicatifs","Salariés":"20 à 49 salariés","latitude":"47.284293","longitude":"-1.548427"}]},{"Entreprise":"HORIZON SOFTWARE (HORIZON SOFTWARE)","Etablissements":[{"Adresse":"12 PROMENADE EUROPA 44200 NANTES","Activité":"Programmation informatique","Salariés":"6 à 9 salariés","latitude":"47.209453","longitude":"-1.539971"}]},{"Entreprise":"TALAN SOLUTIONS","Etablissements":[{"Adresse":"30-32 30 BOULEVARD VINCENT GACHE 44200 NANTES","Activité":"Conseil en systèmes et logiciels informatiques","Salariés":"100 à 199 salariés","latitude":"47.206154","longitude":"-1.547277"}]},{"Entreprise":"HR CONSEIL","Etablissements":[{"Adresse":"40 RUE LA TOUR D'AUVERGNE 44200 NANTES","Activité":"Conseil en systèmes et logiciels informatiques","Salariés":"Tranche inconnue","latitude":"47.20603","longitude":"-1.560297"}]},{"Entreprise":"GROUPE ALTERNA (GROUPE ALTERNA SEVRES)","Etablissements":[{"Adresse":"IMMEUBLE L'ACROPOLE 2 RUE CRUCY 44000 NANTES","Activité":"Activité inconnue","Salariés":"1 ou 2 salariés","latitude":"47.214826","longitude":"-1.546437"}]},{"Entreprise":"SPI INFORMATIQUE","Etablissements":[{"Adresse":"L ACROPOLE 2 RUE CRUCY 44000 NANTES","Activité":"Programmation informatique","Salariés":"Tranche inconnue","latitude":"47.214826","longitude":"-1.546437"}]},{"Entreprise":"REGNOLOGY FRANCE","Etablissements":[{"Adresse":"16 RUE MARCEAU 44000 NANTES","Activité":"Activité inconnue","Salariés":"6 à 9 salariés","latitude":"47.21626","longitude":"-1.563632"}]},{"Entreprise":"INNLOG","Etablissements":[{"Adresse":"PARC DES GRESILLIERES 1 B AVENUE JULES VERNE 44230 SAINT-SEBASTIEN-SUR-LOIRE","Activité":"Programmation informatique","Salariés":"10 à 19 salariés","latitude":"47.211083","longitude":"-1.486772"}]},{"Entreprise":"ECEDI","Etablissements":[{"Adresse":"40 RUE LA TOUR D'AUVERGNE 44200 NANTES","Activité":"Conseil en systèmes et logiciels informatiques","Salariés":"Tranche inconnue","latitude":"47.20603","longitude":"-1.560297"}]},{"Entreprise":"KLINT (KLINT)","Etablissements":[{"Adresse":"15 B ALLEE COMMANDANT CHARCOT 44000 NANTES","Activité":"Conseil en systèmes et logiciels informatiques","Salariés":"Tranche inconnue","latitude":"47.21717","longitude":"-1.545526"}]},{"Entreprise":"ARTELYS","Etablissements":[{"Adresse":"12 AVENUE CARNOT 44000 NANTES","Activité":"Programmation informatique","Salariés":"6 à 9 salariés","latitude":"47.213722","longitude":"-1.545321"}]},{"Entreprise":"GALADRIM","Etablissements":[{"Adresse":"11 B QUAI TURENNE 44000 NANTES","Activité":"Programmation informatique","Salariés":"Tranche inconnue","latitude":"47.212306","longitude":"-1.555841"}]},{"Entreprise":"VALOWAY","Etablissements":[{"Adresse":"20 QUAI DUMONT D'URVILLE 44200 NANTES","Activité":"Conseil en systèmes et logiciels informatiques","Salariés":"Tranche inconnue","latitude":"47.206779","longitude":"-1.527089"}]},{"Entreprise":"OWKIN FRANCE","Etablissements":[{"Adresse":"4 RUE VOLTAIRE 44000 NANTES","Activité":"Programmation informatique","Salariés":"10 à 19 salariés","latitude":"47.212822","longitude":"-1.563372"}]},{"Entreprise":"EDGAR SAS","Etablissements":[{"Adresse":"ESPACE ENTR. 1ER ETG. 2 RUE ALFRED KASTLER 44300 NANTES","Activité":"Programmation informatique","Salariés":"10 à 19 salariés","latitude":"47.28215","longitude":"-1.519909"}]},{"Entreprise":"PULSE","Etablissements":[{"Adresse":"1 RUE DU GUESCLIN 44000 NANTES","Activité":"Conseil en systèmes et logiciels informatiques","Salariés":"Tranche inconnue","latitude":"47.212895","longitude":"-1.556078"}]},{"Entreprise":"KANOMA","Etablissements":[{"Adresse":"1 RUE BAYARD 44100 NANTES","Activité":"Conseil en systèmes et logiciels informatiques","Salariés":"Tranche inconnue","latitude":"47.211027","longitude":"-1.569959"}]},{"Entreprise":"DAXIUM","Etablissements":[{"Adresse":"21 A BOULEVARD GABRIEL GUIST'HAU 44000 NANTES","Activité":"Édition de logiciels applicatifs","Salariés":"10 à 19 salariés","latitude":"47.216635","longitude":"-1.567016"}]},{"Entreprise":"INTER MUTUELLES ASSISTANCE TECHNOLOGIES (IMATECH)","Etablissements":[{"Adresse":"31 ROUTE DE GACHET 44300 NANTES","Activité":"Conseil en systèmes et logiciels informatiques","Salariés":"500 à 999 salariés","latitude":"47.283826","longitude":"-1.520192"}]},{"Entreprise":"ARPEGE","Etablissements":[{"Adresse":"13 RUE DE LA LOIRE 44230 SAINT-SEBASTIEN-SUR-LOIRE","Activité":"Édition de logiciels applicatifs","Salariés":"200 à 499 salariés","latitude":"47.207397","longitude":"-1.514156"}]},{"Entreprise":"CAP DATA CONSULTING","Etablissements":[{"Adresse":"19 RUE CREBILLON 44000 NANTES","Activité":"Conseil en systèmes et logiciels informatiques","Salariés":"Tranche inconnue","latitude":"47.213472","longitude":"-1.561189"}]},{"Entreprise":"SYMPHONYEYC FRANCE","Etablissements":[{"Adresse":"ZAC DU MOULIN NEUF RUE GUGLIELMO MARCONI 44800 SAINT-HERBLAIN","Activité":"Activité inconnue","Salariés":"20 à 49 salariés","latitude":"47.227799","longitude":"-1.619688"}]},{"Entreprise":"SOLEDIS (MEDIAOUEST, FORMAOUEST, MODULES WEB, KYRIELL, MEDIA CMS, BOOST CRM, BOOST E-COMMERCE, BOOST IMMO, AP)","Etablissements":[{"Adresse":"HUB CREATIC 6 RUE ROSE DIENG-KUNTZ 44300 NANTES","Activité":"Conseil en systèmes et logiciels informatiques","Salariés":"1 ou 2 salariés","latitude":"47.283804","longitude":"-1.515469"}]},{"Entreprise":"OXIANE","Etablissements":[{"Adresse":"4 RUE DES OLIVETTES 44000 NANTES","Activité":"Édition de logiciels applicatifs","Salariés":"Tranche inconnue","latitude":"47.21201","longitude":"-1.550087"}]},{"Entreprise":"XMCO","Etablissements":[{"Adresse":"5 RUE DU COUEDIC 44000 NANTES","Activité":"Conseil en systèmes et logiciels informatiques","Salariés":"Tranche inconnue","latitude":"47.214355","longitude":"-1.557571"}]},{"Entreprise":"SHARINGCLOUD","Etablissements":[{"Adresse":"21 RUE DE CORNULIER 44000 NANTES","Activité":"Programmation informatique","Salariés":"20 à 49 salariés","latitude":"47.214896","longitude":"-1.540452"}]},{"Entreprise":"CODARIANE","Etablissements":[{"Adresse":"LE MEGALITHE 4 IMPASSE AUGUSTIN FRESNEL 44800 SAINT-HERBLAIN","Activité":"Conseil en systèmes et logiciels informatiques","Salariés":"10 à 19 salariés","latitude":"47.227988","longitude":"-1.618139"}]},{"Entreprise":"OREADES SARL (GENERATION INTERNET)","Etablissements":[{"Adresse":"15 RUE PAUL BELLAMY 44000 NANTES","Activité":"Programmation informatique","Salariés":"10 à 19 salariés","latitude":"47.221792","longitude":"-1.556341"}]},{"Entreprise":"ENVIRONNEMENT NUMERIQUE","Etablissements":[{"Adresse":"IMMEUBLE LE CHENE 8 RUE DE LA GARDE 44300 NANTES","Activité":"Conseil en systèmes et logiciels informatiques","Salariés":"10 à 19 salariés","latitude":"47.250283","longitude":"-1.501342"}]},{"Entreprise":"MAKINA CORPUS (BUKOLIK)","Etablissements":[{"Adresse":"11 RUE DU MARCHIX 44000 NANTES","Activité":"Programmation informatique","Salariés":"6 à 9 salariés","latitude":"47.219062","longitude":"-1.561506"}]},{"Entreprise":"IADVIZE","Etablissements":[{"Adresse":"EURONANTES GARE BAT B 9 RUE NINA SIMONE 44000 NANTES","Activité":"Programmation informatique","Salariés":"100 à 199 salariés","latitude":"47.21725","longitude":"-1.534496"}]},{"Entreprise":"LENGOW","Etablissements":[{"Adresse":"6 RUE RENE VIVIANI 44200 NANTES","Activité":"Conseil en systèmes et logiciels informatiques","Salariés":"100 à 199 salariés","latitude":"47.207631","longitude":"-1.536619"}]},{"Entreprise":"AUGUSTA REEVES OUEST","Etablissements":[{"Adresse":"44 RUE DE STRASBOURG 44000 NANTES","Activité":"Conseil en systèmes et logiciels informatiques","Salariés":"20 à 49 salariés","latitude":"47.219289","longitude":"-1.553936"}]},{"Entreprise":"KNPLABS (WIKIAVIS DESINFOX LE CANAPE ROUGE) (KNPLABS)","Etablissements":[{"Adresse":"8 -A- 8 T RUE EMILE PEHANT 44000 NANTES","Activité":"Programmation informatique","Salariés":"Tranche inconnue","latitude":"47.213308","longitude":"-1.546581"}]},{"Entreprise":"NEOGEO TECHNOLOGIES (NEOGEO TECH)","Etablissements":[{"Adresse":"7 RUE ALFRED KASTLER 44300 NANTES","Activité":"Conseil en systèmes et logiciels informatiques","Salariés":"Tranche inconnue","latitude":"47.281615","longitude":"-1.518708"}]},{"Entreprise":"LUGOS (LUGOS)","Etablissements":[{"Adresse":"11 IMPASSE JUTON 44000 NANTES","Activité":"Conseil en systèmes et logiciels informatiques","Salariés":"6 à 9 salariés","latitude":"47.211816","longitude":"-1.551469"}]},{"Entreprise":"ILLICO RESEAU (ILLICO RESEAU)","Etablissements":[{"Adresse":"PA DES MOULINETS 16 BOULEVARD CHARLES DE GAULLE 44800 SAINT-HERBLAIN","Activité":"Conseil en systèmes et logiciels informatiques","Salariés":"1 ou 2 salariés","latitude":"47.210733","longitude":"-1.623497"}]},{"Entreprise":"LTTD CONSULTING","Etablissements":[{"Adresse":"3 BOULEVARD DU ZENITH 44800 SAINT-HERBLAIN","Activité":"Conseil en systèmes et logiciels informatiques","Salariés":"20 à 49 salariés","latitude":"47.231941","longitude":"-1.62839"}]},{"Entreprise":"ZSPHERE (Z SPHERE)","Etablissements":[{"Adresse":"18 RUE CREBILLON 44000 NANTES","Activité":"Activité inconnue","Salariés":"Tranche inconnue","latitude":"47.213675","longitude":"-1.560876"}]},{"Entreprise":"ARCHITECTURE CONSEIL EN INGENIERIE INFORMATIQUE (ACII)","Etablissements":[{"Adresse":"17 BOULEVARD DE BERLIN 44000 NANTES","Activité":"Programmation informatique","Salariés":"Tranche inconnue","latitude":"47.21625","longitude":"-1.537549"}]},{"Entreprise":"ILIADE CONSULTING","Etablissements":[{"Adresse":"10 RUE PRESIDENT EDOUARD HERRIOT 44000 NANTES","Activité":"Conseil en systèmes et logiciels informatiques","Salariés":"Tranche inconnue","latitude":"47.218757","longitude":"-1.560321"}]},{"Entreprise":"PHILAE TECHNOLOGIES","Etablissements":[{"Adresse":"4 RUE EDITH PIAF 44800 SAINT-HERBLAIN","Activité":"Activité inconnue","Salariés":"3 à 5 salariés","latitude":"47.22774","longitude":"-1.623176"}]},{"Entreprise":"INDUSTRIAL SMART SOFTWARE TECHNOLOGY PAR ABREVIATION IS2T (MICROEJ) (IST)","Etablissements":[{"Adresse":"11 RUE DU CHEMIN ROUGE 44300 NANTES","Activité":"Programmation informatique","Salariés":"20 à 49 salariés","latitude":"47.251905","longitude":"-1.511283"}]},{"Entreprise":"MAKINA CORPUS TERRITOIRES (ALEXIS PELNAK - ADELA BOANO)","Etablissements":[{"Adresse":"11 RUE DU MARCHIX 44000 NANTES","Activité":"Activité inconnue","Salariés":"3 à 5 salariés","latitude":"47.219062","longitude":"-1.561506"}]},{"Entreprise":"NET HELIUM","Etablissements":[{"Adresse":"144 RUE PAUL BELLAMY 44000 NANTES","Activité":"Programmation informatique","Salariés":"1 ou 2 salariés","latitude":"47.229071","longitude":"-1.562215"}]},{"Entreprise":"D-VINE","Etablissements":[{"Adresse":"16 BOULEVARD DE LA PRAIRIE AU DUC 44200 NANTES","Activité":"Programmation informatique","Salariés":"20 à 49 salariés","latitude":"47.20515","longitude":"-1.556933"}]},{"Entreprise":"PEAK ACE FRANCE (SEARCH FORESIGHT / PEAK ACE)","Etablissements":[{"Adresse":"1 BOULEVARD DE BERLIN 44000 NANTES","Activité":"Conseil en systèmes et logiciels informatiques","Salariés":"Tranche inconnue","latitude":"47.213856","longitude":"-1.52991"}]},{"Entreprise":"OPENDATASOFT (OPENDATASOFT)","Etablissements":[{"Adresse":"LE PALACE 4 RUE VOLTAIRE 44000 NANTES","Activité":"Conseil en systèmes et logiciels informatiques","Salariés":"10 à 19 salariés","latitude":"47.212822","longitude":"-1.563372"}]},{"Entreprise":"NAOMIS","Etablissements":[{"Adresse":"4 RUE RENE VIVIANI 44200 NANTES","Activité":"Conseil en systèmes et logiciels informatiques","Salariés":"20 à 49 salariés","latitude":"47.20719","longitude":"-1.53718"}]},{"Entreprise":"3 KLES SERVICES","Etablissements":[{"Adresse":"144 RUE PAUL BELLAMY 44000 NANTES","Activité":"Conseil en systèmes et logiciels informatiques","Salariés":"Tranche inconnue","latitude":"47.229071","longitude":"-1.562215"}]},{"Entreprise":"KEPLER SOLUTIONS","Etablissements":[{"Adresse":"IMMEUBLE DE MALLEVE 2A - 1 BOULEVARD JEAN MOULIN 44100 NANTES","Activité":"Programmation informatique","Salariés":"10 à 19 salariés","latitude":"47.198887","longitude":"-1.60569"}]},{"Entreprise":"JERING","Etablissements":[{"Adresse":"41-43 41 QUAI MALAKOFF 44000 NANTES","Activité":"Programmation informatique","Salariés":"Tranche inconnue","latitude":"47.214444","longitude":"-1.540784"}]},{"Entreprise":"DELIA TECHNOLOGIES","Etablissements":[{"Adresse":"11 IMPASSE JUTON 44000 NANTES","Activité":"Conseil en systèmes et logiciels informatiques","Salariés":"Tranche inconnue","latitude":"47.211816","longitude":"-1.551469"}]},{"Entreprise":"MBP DIGITAL","Etablissements":[{"Adresse":"10 AVENUE LOUIS DE BROGLIE 44300 NANTES","Activité":"Conseil en systèmes et logiciels informatiques","Salariés":"10 à 19 salariés","latitude":"47.261277","longitude":"-1.55851"}]},{"Entreprise":"BLUEXML (BLUEXML) (BLUEXML)","Etablissements":[{"Adresse":"20 RUE MERCOEUR 44000 NANTES","Activité":"Programmation informatique","Salariés":"10 à 19 salariés","latitude":"47.217655","longitude":"-1.561309"}]},{"Entreprise":"TREEZ","Etablissements":[{"Adresse":"IMMEUBLE BAMBOO 24 RUE RENE VIVIANI 44200 NANTES","Activité":"Conseil en systèmes et logiciels informatiques","Salariés":"Tranche inconnue","latitude":"47.21007","longitude":"-1.534968"}]},{"Entreprise":"DASHDOC (DASHDOC)","Etablissements":[{"Adresse":"41-43 41 QUAI MALAKOFF 44000 NANTES","Activité":"Conseil en systèmes et logiciels informatiques","Salariés":"20 à 49 salariés","latitude":"47.214444","longitude":"-1.540784"}]},{"Entreprise":"LEANCO","Etablissements":[{"Adresse":"2 RUE ALFRED KASTLER 44300 NANTES","Activité":"Édition de logiciels applicatifs","Salariés":"Tranche inconnue","latitude":"47.28215","longitude":"-1.519909"},{"Adresse":"111 ROUTE DE GACHET 44300 NANTES","Activité":"Activité inconnue","Salariés":"Tranche inconnue","latitude":"47.290659","longitude":"-1.523249"}]},{"Entreprise":"DERET SERVICES NUMERIQUES","Etablissements":[{"Adresse":"1-3 1 RUE JACQUES DAGUERRE 44300 NANTES","Activité":"Programmation informatique","Salariés":"Tranche inconnue","latitude":"47.274887","longitude":"-1.510792"}]},{"Entreprise":"KEREIS SERVICES (KEREIS FORMATION)","Etablissements":[{"Adresse":"BAT E ET F 3 RUE VICTOR SCHOELCHER 44800 SAINT-HERBLAIN","Activité":"Conseil en systèmes et logiciels informatiques","Salariés":"100 à 199 salariés","latitude":"47.221505","longitude":"-1.626935"}]},{"Entreprise":"OCODE (OCODE)","Etablissements":[{"Adresse":"11 RUE LA FAYETTE 44000 NANTES","Activité":"Édition de logiciels applicatifs","Salariés":"20 à 49 salariés","latitude":"47.216642","longitude":"-1.562178"}]},{"Entreprise":"VINOSAKA","Etablissements":[{"Adresse":"12 ALLEE DU PORT MAILLARD 44000 NANTES","Activité":"Activité inconnue","Salariés":"Tranche inconnue","latitude":"47.2147999731878","longitude":"-1.5522920601972257"}]},{"Entreprise":"JOUL","Etablissements":[{"Adresse":"92 QUAI DE LA FOSSE 44300 NANTES","Activité":"Programmation informatique","Salariés":"10 à 19 salariés","latitude":"47.208058","longitude":"-1.570584"}]},{"Entreprise":"KEY CONSULTING OUEST","Etablissements":[{"Adresse":"3-9 ZAC DU PRE GAUCHET ILOT 2D 3 MAIL PABLO PICASSO 44000 NANTES","Activité":"Conseil en systèmes et logiciels informatiques","Salariés":"10 à 19 salariés","latitude":"47.216148","longitude":"-1.5336"}]},{"Entreprise":"PACTE NOVATION S.A.","Etablissements":[{"Adresse":"9 RUE DE LA FOSSE 44000 NANTES","Activité":"Conseil en systèmes et logiciels informatiques","Salariés":"1 ou 2 salariés","latitude":"47.213702","longitude":"-1.558782"},{"Adresse":"CITE DES CONGRES 12 AVENUE CARNOT 44000 NANTES","Activité":"Activité inconnue","Salariés":"Tranche inconnue","latitude":"47.213722","longitude":"-1.545321"}]},{"Entreprise":"HIPAY (HIPAY / EUROVOX, HIPAY TPP, HIPAY MICROPAIEMENT, HIPAY MICROPAYEMENT, HIPAY MOBILE, HIPAY BANKING) (CF RUB 16)","Etablissements":[{"Adresse":"74 BOULEVARD DE LA PRAIRIE AU DUC 44200 NANTES","Activité":"Programmation informatique","Salariés":"50 à 99 salariés","latitude":"47.204191","longitude":"-1.566273"}]},{"Entreprise":"KEEPCOD","Etablissements":[{"Adresse":"2 B RUE PAUL PAINLEVE 44000 NANTES","Activité":"Activité inconnue","Salariés":"Tranche inconnue","latitude":"47.224686","longitude":"-1.571027"},{"Adresse":"LA CANOPEE 10 B RUE SARRAZIN 44000 NANTES","Activité":"Conseil en systèmes et logiciels informatiques","Salariés":"Tranche inconnue","latitude":"47.220909","longitude":"-1.560489"}]},{"Entreprise":"DSIA (DSIA)","Etablissements":[{"Adresse":"16 RUE DE LA PETITE SENSIVE 44300 NANTES","Activité":"Activité inconnue","Salariés":"100 à 199 salariés","latitude":"47.259339","longitude":"-1.560724"}]},{"Entreprise":"EMERALD VISION SA (VERTEEGO)","Etablissements":[{"Adresse":"4 RUE VOLTAIRE 44000 NANTES","Activité":"Édition de logiciels applicatifs","Salariés":"10 à 19 salariés","latitude":"47.212822","longitude":"-1.563372"}]},{"Entreprise":"DIMO MAINT","Etablissements":[{"Adresse":"ZAC DE LA CHANTRERIE 3 RUE ALFRED KASTLER 44300 NANTES","Activité":"Conseil en systèmes et logiciels informatiques","Salariés":"10 à 19 salariés","latitude":"47.28197","longitude":"-1.518503"}]},{"Entreprise":"METEODYN","Etablissements":[{"Adresse":"7-9 - ILOT 1 DE LA ZAC 7 RUE DUGUAY TROUIN 44800 SAINT-HERBLAIN","Activité":"Activité inconnue","Salariés":"Tranche inconnue","latitude":"47.224129","longitude":"-1.618243"}]},{"Entreprise":"SYLLABS (SYLLABS)","Etablissements":[{"Adresse":"1 RUE DU GUESCLIN 44000 NANTES","Activité":"Activité inconnue","Salariés":"Tranche inconnue","latitude":"47.212895","longitude":"-1.556078"}]},{"Entreprise":"ANAYA (AMANI CONSEIL - ALVERYS - UPFI CONSULTING)","Etablissements":[{"Adresse":"10 RUE GAETAN RONDEAU 44200 NANTES","Activité":"Conseil en systèmes et logiciels informatiques","Salariés":"10 à 19 salariés","latitude":"47.206315","longitude":"-1.535263"}]},{"Entreprise":"ACOLAD DIGITAL","Etablissements":[{"Adresse":"EXPOSITIONS DE LA BEAUJOIRE ROUTE DE SAINT JOSEPH 44300 NANTES","Activité":"Conseil en systèmes et logiciels informatiques","Salariés":"20 à 49 salariés","latitude":"47.254418","longitude":"-1.529643"}]},{"Entreprise":"ERESIS (ACTEMIUM)","Etablissements":[{"Adresse":"PARC HELIOPOLIS 1101 RUE JACQUES CARTIER 44800 SAINT-HERBLAIN","Activité":"Conseil en systèmes et logiciels informatiques","Salariés":"20 à 49 salariés","latitude":"47.223968","longitude":"-1.637072"},{"Adresse":"2 IMPASSE CHARLES TRENET 44800 SAINT-HERBLAIN","Activité":"Conseil en systèmes et logiciels informatiques","Salariés":"Tranche inconnue","latitude":"47.22706","longitude":"-1.62313"}]},{"Entreprise":"ANTARES CDS (ANTARES CDS)","Etablissements":[{"Adresse":"22 RUE DES OLIVETTES 44000 NANTES","Activité":"Programmation informatique","Salariés":"Tranche inconnue","latitude":"47.210831","longitude":"-1.549439"}]},{"Entreprise":"VIF (VIF)","Etablissements":[{"Adresse":"10 RUE DE BRETAGNE 44240 LA CHAPELLE-SUR-ERDRE","Activité":"Édition de logiciels applicatifs","Salariés":"200 à 499 salariés","latitude":"47.284326","longitude":"-1.541939"}]},{"Entreprise":"ASR INFORMATIQUE","Etablissements":[{"Adresse":"4 RUE EDITH PIAF 44800 SAINT-HERBLAIN","Activité":"Conseil en systèmes et logiciels informatiques","Salariés":"Tranche inconnue","latitude":"47.22774","longitude":"-1.623176"}]},{"Entreprise":"ITS IBELEM","Etablissements":[{"Adresse":"3 T RUE D'ATHENES 44300 NANTES","Activité":"Conseil en systèmes et logiciels informatiques","Salariés":"10 à 19 salariés","latitude":"47.248637","longitude":"-1.503461"}]},{"Entreprise":"OMNIA NUMERIQUE (OMNIA NUMERIQUE)","Etablissements":[{"Adresse":"17 BOULEVARD DE BERLIN 44000 NANTES","Activité":"Activité inconnue","Salariés":"10 à 19 salariés","latitude":"47.21625","longitude":"-1.537549"}]},{"Entreprise":"AKENEO","Etablissements":[{"Adresse":"2 PLACE GENERAL MELLINET 44100 NANTES","Activité":"Édition de logiciels applicatifs","Salariés":"100 à 199 salariés","latitude":"47.211639","longitude":"-1.575914"}]},{"Entreprise":"BEEKAST","Etablissements":[{"Adresse":"1 ALLEE CASSARD 44000 NANTES","Activité":"Édition de logiciels applicatifs","Salariés":"Tranche inconnue","latitude":"47.214141","longitude":"-1.555748"}]},{"Entreprise":"WE CRAFT APPS (WE CRAFT APPS)","Etablissements":[{"Adresse":"17 RUE TIMOTHEE 44100 NANTES","Activité":"Programmation informatique","Salariés":"10 à 19 salariés","latitude":"47.211832","longitude":"-1.583744"},{"Adresse":"13 RUE ALAIN BARBE TORTE 44200 NANTES","Activité":"Programmation informatique","Salariés":"Tranche inconnue","latitude":"47.205766","longitude":"-1.556508"}]},{"Entreprise":"LONE STONE (LONE STONE STUDIO; LSS FRANCE; CITY INVADERS; LONE STONE CONSULTING)","Etablissements":[{"Adresse":"40 RUE LA TOUR D'AUVERGNE 44200 NANTES","Activité":"Programmation informatique","Salariés":"20 à 49 salariés","latitude":"47.20603","longitude":"-1.560297"}]},{"Entreprise":"EDFLEX","Etablissements":[{"Adresse":"CANTINE 40 RUE LA TOUR D'AUVERGNE 44200 NANTES","Activité":"Programmation informatique","Salariés":"Tranche inconnue","latitude":"47.20603","longitude":"-1.560297"}]},{"Entreprise":"ISOCEL","Etablissements":[{"Adresse":"IMMEUBLE LE SELVE 10 RUE DE SAINTONGE 44240 LA CHAPELLE-SUR-ERDRE","Activité":"Conseil en systèmes et logiciels informatiques","Salariés":"10 à 19 salariés","latitude":"47.286168","longitude":"-1.546618"}]},{"Entreprise":"WESCALE","Etablissements":[{"Adresse":"1 ALLEE CASSARD 44000 NANTES","Activité":"Programmation informatique","Salariés":"Tranche inconnue","latitude":"47.214141","longitude":"-1.555748"}]},{"Entreprise":"OBOLE DIGITALE","Etablissements":[{"Adresse":"5 RUE DES CADENIERS 44000 NANTES","Activité":"Programmation informatique","Salariés":"20 à 49 salariés","latitude":"47.211388","longitude":"-1.564274"}]},{"Entreprise":"KORALPLAY (KORALPLAY)","Etablissements":[{"Adresse":"75 RUE PREFET BONNEFOY 44000 NANTES","Activité":"Conseil en systèmes et logiciels informatiques","Salariés":"Tranche inconnue","latitude":"47.221654","longitude":"-1.550403"}]},{"Entreprise":"ENDROAD","Etablissements":[{"Adresse":"1 RUE JOSEPH CAILLE 44000 NANTES","Activité":"Programmation informatique","Salariés":"Tranche inconnue","latitude":"47.219951","longitude":"-1.562505"}]},{"Entreprise":"3 KLES CONSULTING (3 KLES CONSULTING)","Etablissements":[{"Adresse":"144 RUE PAUL BELLAMY 44000 NANTES","Activité":"Conseil en systèmes et logiciels informatiques","Salariés":"Tranche inconnue","latitude":"47.229071","longitude":"-1.562215"}]},{"Entreprise":"SYD IM","Etablissements":[{"Adresse":"11 RUE DE LA RABOTIERE 44800 SAINT-HERBLAIN","Activité":"Gestion d'installations informatiques","Salariés":"20 à 49 salariés","latitude":"47.211575","longitude":"-1.620713"}]},{"Entreprise":"CAPTAIN DATA (CAPTAIN DATA)","Etablissements":[{"Adresse":"41-43 41 QUAI MALAKOFF 44000 NANTES","Activité":"Programmation informatique","Salariés":"10 à 19 salariés","latitude":"47.214444","longitude":"-1.540784"}]},{"Entreprise":"ZEENEA","Etablissements":[{"Adresse":"17 BOULEVARD DE BERLIN 44000 NANTES","Activité":"Édition de logiciels applicatifs","Salariés":"10 à 19 salariés","latitude":"47.21625","longitude":"-1.537549"}]},{"Entreprise":"HELYX","Etablissements":[{"Adresse":"28 BOULEVARD BENONI GOULLIN 44200 NANTES","Activité":"Programmation informatique","Salariés":"1 ou 2 salariés","latitude":"47.201725","longitude":"-1.55309"}]},{"Entreprise":"VIDEORUNRUN","Etablissements":[{"Adresse":"4 RUE VOLTAIRE 44000 NANTES","Activité":"Édition de logiciels applicatifs","Salariés":"20 à 49 salariés","latitude":"47.212822","longitude":"-1.563372"}]},{"Entreprise":"UPGRADE","Etablissements":[{"Adresse":"EXAPOLE -PARC D'ACTIVITE 275 BOULEVARD MARCEL PAUL 44800 SAINT-HERBLAIN","Activité":"Conseil en systèmes et logiciels informatiques","Salariés":"Tranche inconnue","latitude":"47.229718","longitude":"-1.633356"}]},{"Entreprise":"DIGITAL4BETTER","Etablissements":[{"Adresse":"LE KARTING 6 RUE DE SAINT DOMINGUE 44200 NANTES","Activité":"Programmation informatique","Salariés":"10 à 19 salariés","latitude":"47.200728","longitude":"-1.571643"}]},{"Entreprise":"OSEDEA","Etablissements":[{"Adresse":"12 RUE DE L'ECHAPPEE 44200 NANTES","Activité":"Programmation informatique","Salariés":"10 à 19 salariés","latitude":"47.203277","longitude":"-1.549737"}]},{"Entreprise":"PRIMELIS (NET REFERENCEMENT)","Etablissements":[{"Adresse":"IMMEUBLE LE TRIPODE 6 RUE NATHALIE SARRAUTE 44200 NANTES","Activité":"Conseil en systèmes et logiciels informatiques","Salariés":"Tranche inconnue","latitude":"47.208946999999974","longitude":"-1.5406379999999986"}]},{"Entreprise":"PERFORMANSE (BERNARD JULHIET RECRUTEMENT-ARGOS-JULHIET (CONSULTING/LEARNING/RECRUITING))","Etablissements":[{"Adresse":"PHARE DES ALIZES ZAC DU PRE GAUCHET 4 RUE MARCEL PAUL 44000 NANTES","Activité":"Édition de logiciels applicatifs","Salariés":"50 à 99 salariés","latitude":"47.214353","longitude":"-1.537292"}]},{"Entreprise":"ALSEVE","Etablissements":[{"Adresse":"PARC SOLARIS IMMEUBLE ARKAM 10 CHEMIN DU VIGNEAU 44800 SAINT-HERBLAIN","Activité":"Édition de logiciels applicatifs","Salariés":"10 à 19 salariés","latitude":"47.216882","longitude":"-1.625552"}]},{"Entreprise":"G.I.D.E. GESTION INTEGREE DE DOCUMENTS ELECTRONIQUES (GIDE)","Etablissements":[{"Adresse":"17 RUE LA NOUE BRAS DE FER 44200 NANTES","Activité":"Programmation informatique","Salariés":"10 à 19 salariés","latitude":"47.207044","longitude":"-1.56023"}]},{"Entreprise":"LUDICIUS","Etablissements":[{"Adresse":"46 RUE DE STRASBOURG 44000 NANTES","Activité":"Conseil en systèmes et logiciels informatiques","Salariés":"10 à 19 salariés","latitude":"47.219511","longitude":"-1.554126"}]},{"Entreprise":"CODE LUTIN","Etablissements":[{"Adresse":"LES ESPACES JULES VERNE BAT A 12 AVENUE JULES VERNE 44230 SAINT-SEBASTIEN-SUR-LOIRE","Activité":"Programmation informatique","Salariés":"20 à 49 salariés","latitude":"47.210338","longitude":"-1.486716"}]},{"Entreprise":"LOGICMAX TECHNOLOGIE","Etablissements":[{"Adresse":"2 BOULEVARD DE LAUNAY 44100 NANTES","Activité":"Édition de logiciels applicatifs","Salariés":"20 à 49 salariés","latitude":"47.209881","longitude":"-1.570946"}]},{"Entreprise":"ISILOG (ISILOG)","Etablissements":[{"Adresse":"ZAC DE LA LORIE 8 RUE SACCO ET VANZETTI 44800 SAINT-HERBLAIN","Activité":"Édition de logiciels applicatifs","Salariés":"50 à 99 salariés","latitude":"47.229526","longitude":"-1.651649"}]},{"Entreprise":"ORM DEPANN (ORDI+)","Etablissements":[{"Adresse":"4 ALLEE RENEE BROUSTAL 44100 NANTES","Activité":"Conseil en systèmes et logiciels informatiques","Salariés":"Tranche inconnue","latitude":"47.209347","longitude":"-1.595852"},{"Adresse":"73 IMP DALBY 44000 NANTES","Activité":"Activité inconnue","Salariés":"Tranche inconnue","latitude":"47.222817","longitude":"-1.530443"}]},{"Entreprise":"ARTIS","Etablissements":[{"Adresse":"HAMEAU DES GREZILLIERES AVENUE JULES VERNE 44230 SAINT-SEBASTIEN-SUR-LOIRE","Activité":"Édition de logiciels applicatifs","Salariés":"20 à 49 salariés","latitude":"47.210873","longitude":"-1.486747"}]},{"Entreprise":"SYD CONSEIL","Etablissements":[{"Adresse":"11 RUE DE LA RABOTIERE 44800 SAINT-HERBLAIN","Activité":"Conseil en systèmes et logiciels informatiques","Salariés":"10 à 19 salariés","latitude":"47.211575","longitude":"-1.620713"}]},{"Entreprise":"AIS (AIS OUEST)","Etablissements":[{"Adresse":"BATIMENT AMPERE 2 RUE MICHAEL FARADAY 44800 SAINT-HERBLAIN","Activité":"Conseil en systèmes et logiciels informatiques","Salariés":"200 à 499 salariés","latitude":"47.225413","longitude":"-1.618134"}]},{"Entreprise":"RIPPLE MOTION SERVICES","Etablissements":[{"Adresse":"3EME ETAGE 13 RUE DE LA RABOTIERE 44800 SAINT-HERBLAIN","Activité":"Conseil en systèmes et logiciels informatiques","Salariés":"10 à 19 salariés","latitude":"47.211754","longitude":"-1.620654"}]},{"Entreprise":"CLEOP","Etablissements":[{"Adresse":"4 AVENUE MARCEL CERDAN 44000 NANTES","Activité":"Édition de logiciels applicatifs","Salariés":"10 à 19 salariés","latitude":"47.23413","longitude":"-1.540905"}]},{"Entreprise":"AMEXIO OUEST","Etablissements":[{"Adresse":"1 IMPASSE SERGE REGGIANI 44800 SAINT-HERBLAIN","Activité":"Conseil en systèmes et logiciels informatiques","Salariés":"20 à 49 salariés","latitude":"47.231917","longitude":"-1.628335"}]},{"Entreprise":"GINGER MINDS","Etablissements":[{"Adresse":"RIVEUR 5 CHEMIN DU PRESSOIR CHENAIE 44100 NANTES","Activité":"Conseil en systèmes et logiciels informatiques","Salariés":"20 à 49 salariés","latitude":"47.198397","longitude":"-1.590565"}]},{"Entreprise":"EMOTIC","Etablissements":[{"Adresse":"24 RUE MONTEIL 44000 NANTES","Activité":"Conseil en systèmes et logiciels informatiques","Salariés":"Tranche inconnue","latitude":"47.212605","longitude":"-1.547218"}]},{"Entreprise":"ISIWARE","Etablissements":[{"Adresse":"8 RUE SACCO ET VANZETTI 44800 SAINT-HERBLAIN","Activité":"Programmation informatique","Salariés":"20 à 49 salariés","latitude":"47.229526","longitude":"-1.651649"}]},{"Entreprise":"ACID-SOLUTIONS","Etablissements":[{"Adresse":"7 PASSAGE DOUARD 44000 NANTES","Activité":"Conseil en systèmes et logiciels informatiques","Salariés":"10 à 19 salariés","latitude":"47.211825","longitude":"-1.55077"}]},{"Entreprise":"EUROPEAN SOFT","Etablissements":[{"Adresse":"4 RUE DU DEVON 44240 LA CHAPELLE-SUR-ERDRE","Activité":"Programmation informatique","Salariés":"10 à 19 salariés","latitude":"47.280391","longitude":"-1.553684"}]},{"Entreprise":"PROXIAD OUEST","Etablissements":[{"Adresse":"EXAPOLE BATIMENT I 275 BOULEVARD MARCEL PAUL 44800 SAINT-HERBLAIN","Activité":"Conseil en systèmes et logiciels informatiques","Salariés":"20 à 49 salariés","latitude":"47.229718","longitude":"-1.633356"}]},{"Entreprise":"AXELOR (AXELOR)","Etablissements":[{"Adresse":"13 RUE CRUCY 44000 NANTES","Activité":"Édition de logiciels applicatifs","Salariés":"Tranche inconnue","latitude":"47.214045","longitude":"-1.548034"}]},{"Entreprise":"INTUITI (INTUITI)","Etablissements":[{"Adresse":"43 RUE PREFET BONNEFOY 44000 NANTES","Activité":"Conseil en systèmes et logiciels informatiques","Salariés":"20 à 49 salariés","latitude":"47.222563","longitude":"-1.548292"}]},{"Entreprise":"AUTHENTIC GROUP","Etablissements":[{"Adresse":"1 AVENUE DES LIONS 44800 SAINT-HERBLAIN","Activité":"Conseil en systèmes et logiciels informatiques","Salariés":"20 à 49 salariés","latitude":"47.246325","longitude":"-1.617535"}]},{"Entreprise":"APTITUDE LOGICIELS (VALLAURIS INFORMATIQUE)","Etablissements":[{"Adresse":"8 RUE DE BUDAPEST 44000 NANTES","Activité":"Édition de logiciels applicatifs","Salariés":"10 à 19 salariés","latitude":"47.216429","longitude":"-1.560052"}]},{"Entreprise":"RCA REALISATIONS POUR LA COMPTABILITE ETL AUDIT","Etablissements":[{"Adresse":"NOVAWEST BATIMENT A 8 RUE EDITH PIAF 44800 SAINT-HERBLAIN","Activité":"Édition de logiciels applicatifs","Salariés":"Tranche inconnue","latitude":"47.22774","longitude":"-1.623176"}]},{"Entreprise":"TOOVALU (TOOVALU IMPACT)","Etablissements":[{"Adresse":"LA HALLE 6 EST 40 RUE LA TOUR D'AUVERGNE 44200 NANTES","Activité":"Édition de logiciels applicatifs","Salariés":"10 à 19 salariés","latitude":"47.20603","longitude":"-1.560297"}]},{"Entreprise":"VALWIN","Etablissements":[{"Adresse":"4 RUE VOLTAIRE 44000 NANTES","Activité":"Conseil en systèmes et logiciels informatiques","Salariés":"Tranche inconnue","latitude":"47.212822","longitude":"-1.563372"}]},{"Entreprise":"A E R DE LOIRE ATLANTIQUE (CER44)","Etablissements":[{"Adresse":"8 RUE DE LAPONIE 44240 LA CHAPELLE-SUR-ERDRE","Activité":"Programmation informatique","Salariés":"10 à 19 salariés","latitude":"47.277251","longitude":"-1.549143"}]},{"Entreprise":"ACY (BE APP)","Etablissements":[{"Adresse":"3 PLACE DE LA PETITE HOLLANDE 44000 NANTES","Activité":"Programmation informatique","Salariés":"Tranche inconnue","latitude":"47.212102","longitude":"-1.557094"}]},{"Entreprise":"TROOPERS WEB REPUBLIC (TROOPERS WEB REPUBLIC)","Etablissements":[{"Adresse":"4 RUE DES OLIVETTES 44000 NANTES","Activité":"Programmation informatique","Salariés":"10 à 19 salariés","latitude":"47.21201","longitude":"-1.550087"}]},{"Entreprise":"IRAISER GROUP","Etablissements":[{"Adresse":"199 ROUTE DE CLISSON 44230 SAINT-SEBASTIEN-SUR-LOIRE","Activité":"Édition de logiciels applicatifs","Salariés":"20 à 49 salariés","latitude":"47.189085","longitude":"-1.507706"}]},{"Entreprise":"DGSYS","Etablissements":[{"Adresse":"10 AVENUE DES JADES 44300 NANTES","Activité":"Édition de logiciels applicatifs","Salariés":"Tranche inconnue","latitude":"47.261373","longitude":"-1.494874"}]},{"Entreprise":"GCS E-SANTE PAYS DE LA LOIRE","Etablissements":[{"Adresse":"IMMEUBLE SIGMA 2000 - 1ER ETAGE BOULEVARD VINCENT GACHE 44200 NANTES","Activité":"Conseil en systèmes et logiciels informatiques","Salariés":"20 à 49 salariés","latitude":"47.206461","longitude":"-1.543971"}]},{"Entreprise":"SYD APPS (MOVENTES)","Etablissements":[{"Adresse":"11 RUE DE LA RABOTIERE 44800 SAINT-HERBLAIN","Activité":"Conseil en systèmes et logiciels informatiques","Salariés":"20 à 49 salariés","latitude":"47.211575","longitude":"-1.620713"}]},{"Entreprise":"VALEURIAD","Etablissements":[{"Adresse":"14 RUE FRANCOIS EVELLIN 44000 NANTES","Activité":"Conseil en systèmes et logiciels informatiques","Salariés":"50 à 99 salariés","latitude":"47.219503","longitude":"-1.538935"}]},{"Entreprise":"KAEMO (KINOW)","Etablissements":[{"Adresse":"ILOT 4B CTRE SPACES EURONANTES 7 BOULEVARD DE BERLIN 44000 NANTES","Activité":"Programmation informatique","Salariés":"Tranche inconnue","latitude":"47.215732","longitude":"-1.531726"}]},{"Entreprise":"TERACTYS","Etablissements":[{"Adresse":"4 RUE EDOUARD NIGNON 44300 NANTES","Activité":"Édition de logiciels applicatifs","Salariés":"Tranche inconnue","latitude":"47.275432","longitude":"-1.509968"}]},{"Entreprise":"EASYBROADCAST","Etablissements":[{"Adresse":"10 RUE DE STRASBOURG 44000 NANTES","Activité":"Programmation informatique","Salariés":"10 à 19 salariés","latitude":"47.215747","longitude":"-1.550913"}]},{"Entreprise":"MOOD CONSEIL","Etablissements":[{"Adresse":"3 RUE SANLECQUE 44000 NANTES","Activité":"Conseil en systèmes et logiciels informatiques","Salariés":"Tranche inconnue","latitude":"47.210969","longitude":"-1.550645"}]},{"Entreprise":"INVIRTUS TECHNOLOGIES (INVIRTUS TECHNOLOGIES)","Etablissements":[{"Adresse":"134 RUE PAUL BELLAMY 44000 NANTES","Activité":"Conseil en systèmes et logiciels informatiques","Salariés":"10 à 19 salariés","latitude":"47.228354","longitude":"-1.561639"}]},{"Entreprise":"AESIR","Etablissements":[{"Adresse":"7 RUE DE THESSALIE 44240 LA CHAPELLE-SUR-ERDRE","Activité":"Programmation informatique","Salariés":"10 à 19 salariés","latitude":"47.281678","longitude":"-1.548116"}]},{"Entreprise":"SHAREMAT","Etablissements":[{"Adresse":"IMMEUBLE ASTURIA BATIMENT C 4 RUE EDITH PIAF 44800 SAINT-HERBLAIN","Activité":"Programmation informatique","Salariés":"10 à 19 salariés","latitude":"47.22774","longitude":"-1.623176"}]},{"Entreprise":"ELEPHANT TECHNOLOGIES","Etablissements":[{"Adresse":"IMMEUBLE DES SALORGES 1 BOULEVARD SALVADOR ALLENDE 44100 NANTES","Activité":"Conseil en systèmes et logiciels informatiques","Salariés":"Tranche inconnue","latitude":"47.206708","longitude":"-1.574388"}]},{"Entreprise":"CASE LAW ANALYTICS","Etablissements":[{"Adresse":"10 B QUAI TURENNE 44000 NANTES","Activité":"Édition de logiciels applicatifs","Salariés":"Tranche inconnue","latitude":"47.212416","longitude":"-1.555573"}]},{"Entreprise":"CEDREO","Etablissements":[{"Adresse":"PARC D'AFFAIRES LES MOULINETS BAT B 16 BOULEVARD CHARLES DE GAULLE 44800 SAINT-HERBLAIN","Activité":"Conseil en systèmes et logiciels informatiques","Salariés":"20 à 49 salariés","latitude":"47.210733","longitude":"-1.623497"}]},{"Entreprise":"THETRIBE","Etablissements":[{"Adresse":"24 MAIL PABLO PICASSO 44000 NANTES","Activité":"Programmation informatique","Salariés":"10 à 19 salariés","latitude":"47.215032","longitude":"-1.537176"}]},{"Entreprise":"VISAGE SCIENCE AND TECHNOLOGY","Etablissements":[{"Adresse":"4 RUE VOLTAIRE 44000 NANTES","Activité":"Programmation informatique","Salariés":"Tranche inconnue","latitude":"47.212822","longitude":"-1.563372"}]},{"Entreprise":"REISEL GRAND OUEST","Etablissements":[{"Adresse":"3 RUE MAYA ANGELOU 44200 NANTES","Activité":"Conseil en systèmes et logiciels informatiques","Salariés":"Tranche inconnue","latitude":"47.203868","longitude":"-1.563698"}]},{"Entreprise":"INFINEO","Etablissements":[{"Adresse":"5 RUE DE LA TOSCANE 44240 LA CHAPELLE-SUR-ERDRE","Activité":"Édition de logiciels applicatifs","Salariés":"20 à 49 salariés","latitude":"47.284293","longitude":"-1.548427"}]},{"Entreprise":"CANTORIEL","Etablissements":[{"Adresse":"IMMEUBLE AMPERE BATIMENT A - 2 RUE MICHAEL FARADAY 44800 SAINT-HERBLAIN","Activité":"Conseil en systèmes et logiciels informatiques","Salariés":"20 à 49 salariés","latitude":"47.225413","longitude":"-1.618134"}]},{"Entreprise":"MYSCRIPT","Etablissements":[{"Adresse":"PARC CLUB DU PERRAY 3 RUE DE LA RAINIERE 44300 NANTES","Activité":"Édition de logiciels applicatifs","Salariés":"100 à 199 salariés","latitude":"47.247355","longitude":"-1.506867"}]},{"Entreprise":"TIKEASY","Etablissements":[{"Adresse":"48 BOULEVARD ALBERT EINSTEIN 44300 NANTES","Activité":"Autres activités informatiques","Salariés":"Tranche inconnue","latitude":"47.262958","longitude":"-1.567728"}]},{"Entreprise":"TELE MERCURE SERVICES (IMAWEB)","Etablissements":[{"Adresse":"2 RUE RENE VIVIANI 44200 NANTES","Activité":"Programmation informatique","Salariés":"Tranche inconnue","latitude":"47.206486","longitude":"-1.538077"}]},{"Entreprise":"EP (EP)","Etablissements":[{"Adresse":"11 RUE LA NOUE BRAS DE FER 44200 NANTES","Activité":"Conseil en systèmes et logiciels informatiques","Salariés":"20 à 49 salariés","latitude":"47.207157","longitude":"-1.558662"}]},{"Entreprise":"RLG INFORMATIQUE (RLG INFORMATIQUE TELNET)","Etablissements":[{"Adresse":"3 CHEMIN DES PAVILLONS 44800 SAINT-HERBLAIN","Activité":"Conseil en systèmes et logiciels informatiques","Salariés":"Tranche inconnue","latitude":"47.251969","longitude":"-1.624745"}]},{"Entreprise":"QESTIT GRAND-OUEST (ACIAL ATLANTIQUE) (ACIAL ATLANTIQUE)","Etablissements":[{"Adresse":"IMMEUBLE LE PONANT 3 PLACE MAGELLAN 44800 SAINT-HERBLAIN","Activité":"Conseil en systèmes et logiciels informatiques","Salariés":"20 à 49 salariés","latitude":"47.224115","longitude":"-1.62352"}]},{"Entreprise":"NAONED SYSTEMES (NAONED)","Etablissements":[{"Adresse":"17 RUE MARIE CURIE 44230 SAINT-SEBASTIEN-SUR-LOIRE","Activité":"Conseil en systèmes et logiciels informatiques","Salariés":"10 à 19 salariés","latitude":"47.188939","longitude":"-1.484338"}]},{"Entreprise":"OBEXTO GROUP (OBEXTO,OBEXTO CONSEIL,OBEXTO FORMS,OBEX FORMS,OB'X FORMS,OBEXTO INFORMATIQUE,OBEXTO FORMATION)","Etablissements":[{"Adresse":"18 RUE CARDINAL RICHARD 44300 NANTES","Activité":"Conseil en systèmes et logiciels informatiques","Salariés":"6 à 9 salariés","latitude":"47.233447","longitude":"-1.569982"}]},{"Entreprise":"UMANIT","Etablissements":[{"Adresse":"13 PLACE SOPHIE TREBUCHET 44000 NANTES","Activité":"Programmation informatique","Salariés":"20 à 49 salariés","latitude":"47.220243","longitude":"-1.545306"}]},{"Entreprise":"TRANQUIL I.T. SYSTEMS (TRANQUIL I T SYSTEMS)","Etablissements":[{"Adresse":"12 AVENUE JULES VERNE 44230 SAINT-SEBASTIEN-SUR-LOIRE","Activité":"Conseil en systèmes et logiciels informatiques","Salariés":"20 à 49 salariés","latitude":"47.210338","longitude":"-1.486716"}]},{"Entreprise":"EDICIA","Etablissements":[{"Adresse":"1 RUE CELESTIN FREINET 44200 NANTES","Activité":"Édition de logiciels applicatifs","Salariés":"20 à 49 salariés","latitude":"47.207211","longitude":"-1.534274"}]},{"Entreprise":"TRIDENT MEDIA GUAR SA (TRIDENT MEDIA GUARD) (TMG)","Etablissements":[{"Adresse":"4 RUE DE LA CORNOUAILLE 44300 NANTES","Activité":"Conseil en systèmes et logiciels informatiques","Salariés":"10 à 19 salariés","latitude":"47.242506","longitude":"-1.535933"}]},{"Entreprise":"BEEMOOV (BEEMOOV)","Etablissements":[{"Adresse":"57 BOULEVARD GASTON SERPETTE 44000 NANTES","Activité":"Conseil en systèmes et logiciels informatiques","Salariés":"20 à 49 salariés","latitude":"47.228107","longitude":"-1.575628"}]},{"Entreprise":"JYMEO","Etablissements":[{"Adresse":"2 RUE ALFRED KASTLER 44300 NANTES","Activité":"Programmation informatique","Salariés":"Tranche inconnue","latitude":"47.28215","longitude":"-1.519909"}]},{"Entreprise":"INFORMATIQUE TELEMATIQUE ATLANTIQUE (COTE IMAGE) (ITEA)","Etablissements":[{"Adresse":"9 B BOULEVARD EMILE ROMANET 44100 NANTES","Activité":"Programmation informatique","Salariés":"20 à 49 salariés","latitude":"47.209513","longitude":"-1.599146"}]},{"Entreprise":"AGM INFORMATIQUE","Etablissements":[{"Adresse":"BAT B 10 RUE GAETAN RONDEAU 44200 NANTES","Activité":"Conseil en systèmes et logiciels informatiques","Salariés":"20 à 49 salariés","latitude":"47.206315","longitude":"-1.535263"}]},{"Entreprise":"CREASIT","Etablissements":[{"Adresse":"86 RUE DE LA VILLE EN PIERRE 44000 NANTES","Activité":"Programmation informatique","Salariés":"10 à 19 salariés","latitude":"47.225075","longitude":"-1.529159"}]},{"Entreprise":"THETRIBE NANTES (VAMBOISSET MEDIA)","Etablissements":[{"Adresse":"24 MAIL PABLO PICASSO 44000 NANTES","Activité":"Programmation informatique","Salariés":"50 à 99 salariés","latitude":"47.215032","longitude":"-1.537176"}]},{"Entreprise":"NAUTILUX","Etablissements":[{"Adresse":"24 QUAI MAGELLAN 44300 NANTES","Activité":"Programmation informatique","Salariés":"Tranche inconnue","latitude":"47.210678","longitude":"-1.5438"}]},{"Entreprise":"EDUMOOV (EDUMOOV)","Etablissements":[{"Adresse":"7 RUE DU ROI ALBERT 44000 NANTES","Activité":"Programmation informatique","Salariés":"10 à 19 salariés","latitude":"47.219148","longitude":"-1.55168"}]},{"Entreprise":"GUEST SUITE","Etablissements":[{"Adresse":"ILINK-DOCK2 10 RUE MAGDELEINE 44200 NANTES","Activité":"Autres activités informatiques","Salariés":"20 à 49 salariés","latitude":"47.204183","longitude":"-1.568338"}]},{"Entreprise":"KIPLIN","Etablissements":[{"Adresse":"BAT. B RDC 28 B QUAI FRANCOIS MITTERRAND 44200 NANTES","Activité":"Édition de jeux électroniques","Salariés":"20 à 49 salariés","latitude":"47.20785","longitude":"-1.564638"}]},{"Entreprise":"AVISIA OUEST","Etablissements":[{"Adresse":"1 IMPASSE SERGE REGGIANI 44800 SAINT-HERBLAIN","Activité":"Conseil en systèmes et logiciels informatiques","Salariés":"20 à 49 salariés","latitude":"47.231917","longitude":"-1.628335"}]},{"Entreprise":"SYD CRM & APPS","Etablissements":[{"Adresse":"11 RUE DE LA RABOTIERE 44800 SAINT-HERBLAIN","Activité":"Conseil en systèmes et logiciels informatiques","Salariés":"10 à 19 salariés","latitude":"47.211575","longitude":"-1.620713"}]},{"Entreprise":"KEENDOO (KEENDO)","Etablissements":[{"Adresse":"6 RUE ROSE DIENG-KUNTZ 44300 NANTES","Activité":"Conseil en systèmes et logiciels informatiques","Salariés":"20 à 49 salariés","latitude":"47.283804","longitude":"-1.515469"}]},{"Entreprise":"AGILINNOV' (SHOPOPOP)","Etablissements":[{"Adresse":"1 MAIL PABLO PICASSO 44000 NANTES","Activité":"Édition de logiciels applicatifs","Salariés":"Tranche inconnue","latitude":"47.217073","longitude":"-1.532056"}]},{"Entreprise":"CITOUBI","Etablissements":[{"Adresse":"14 BOULEVARD MARECHAL ALPHONSE JUIN 44100 NANTES","Activité":"Programmation informatique","Salariés":"10 à 19 salariés","latitude":"47.198142","longitude":"-1.596114"}]},{"Entreprise":"JLOO","Etablissements":[{"Adresse":"1-3 1 RUE LE NOTRE 44000 NANTES","Activité":"Programmation informatique","Salariés":"Tranche inconnue","latitude":"47.219364","longitude":"-1.557232"}]},{"Entreprise":"HERA-MI","Etablissements":[{"Adresse":"4 RUE DUGUAY TROUIN 44800 SAINT-HERBLAIN","Activité":"Conseil en systèmes et logiciels informatiques","Salariés":"10 à 19 salariés","latitude":"47.222282","longitude":"-1.620439"}]},{"Entreprise":"SHIPTIFY","Etablissements":[{"Adresse":"133 RUE DE COULMIERS 44000 NANTES","Activité":"Programmation informatique","Salariés":"10 à 19 salariés","latitude":"47.226492","longitude":"-1.541705"}]},{"Entreprise":"MR SURICATE (MRSURICATE)","Etablissements":[{"Adresse":"7 RUE MATHURIN BRISSONNEAU 44100 NANTES","Activité":"Programmation informatique","Salariés":"20 à 49 salariés","latitude":"47.208831","longitude":"-1.570334"}]},{"Entreprise":"LISTO","Etablissements":[{"Adresse":"10 RUE PRESIDENT EDOUARD HERRIOT 44000 NANTES","Activité":"Édition de logiciels applicatifs","Salariés":"10 à 19 salariés","latitude":"47.218757","longitude":"-1.560321"}]},{"Entreprise":"BOOSTMYMAIL","Etablissements":[{"Adresse":"10 BOULEVARD DU ZENITH 44800 SAINT-HERBLAIN","Activité":"Programmation informatique","Salariés":"10 à 19 salariés","latitude":"47.231941","longitude":"-1.62839"}]},{"Entreprise":"FYZ SERVICES","Etablissements":[{"Adresse":"32 BOULEVARD VICTOR HUGO 44200 NANTES","Activité":"Édition de logiciels applicatifs","Salariés":"10 à 19 salariés","latitude":"47.20312","longitude":"-1.550442"}]},{"Entreprise":"RETAIL VR (RVR)","Etablissements":[{"Adresse":"HALLE 12 5 ALLEE FRIDA KAHLO 44200 NANTES","Activité":"Programmation informatique","Salariés":"Tranche inconnue","latitude":"47.206455","longitude":"-1.559616"}]},{"Entreprise":"PALO IT NANTES","Etablissements":[{"Adresse":"1 RUE SAINT JULIEN 44000 NANTES","Activité":"Conseil en systèmes et logiciels informatiques","Salariés":"10 à 19 salariés","latitude":"47.21474","longitude":"-1.558906"}]},{"Entreprise":"OBAT","Etablissements":[{"Adresse":"144 RUE PAUL BELLAMY 44000 NANTES","Activité":"Programmation informatique","Salariés":"20 à 49 salariés","latitude":"47.229071","longitude":"-1.562215"}]},{"Entreprise":"SMART MACADAM","Etablissements":[{"Adresse":"3 CHEMIN DU PRESSOIR CHENAIE 44100 NANTES","Activité":"Programmation informatique","Salariés":"10 à 19 salariés","latitude":"47.198464","longitude":"-1.589936"}]},{"Entreprise":"SYD IC","Etablissements":[{"Adresse":"11 RUE DE LA RABOTIERE 44800 SAINT-HERBLAIN","Activité":"Conseil en systèmes et logiciels informatiques","Salariés":"10 à 19 salariés","latitude":"47.211575","longitude":"-1.620713"}]},{"Entreprise":"BREIDIC","Etablissements":[{"Adresse":"3 B RUE D'ATHENES 44300 NANTES","Activité":"Conseil en systèmes et logiciels informatiques","Salariés":"10 à 19 salariés","latitude":"47.248721999999994","longitude":"-1.5031529999999973"}]},{"Entreprise":"ARCALE","Etablissements":[{"Adresse":"9 RUE DU PETIT CHATELIER 44300 NANTES","Activité":"Programmation informatique","Salariés":"3 à 5 salariés","latitude":"47.246130999999984","longitude":"-1.505386999999999"}]},{"Entreprise":"MEDIATECH GROUPE","Etablissements":[{"Adresse":"14 RUE PAUL BELLAMY 44000 NANTES","Activité":"Activité inconnue","Salariés":"Tranche inconnue","latitude":"47.221459","longitude":"-1.555764"}]}]